name	lat	long	pop
Sant Julià de Lòria	42.46372	1.49129	8022
Ordino	42.55623	1.53319	3066
les Escaldes	42.50729	1.53414	15853
la Massana	42.54499	1.51483	7211
Encamp	42.53474	1.58014	11223
Canillo	42.5676	1.59756	3292
Andorra la Vella	42.50779	1.52109	20430
Umm al Qaywayn	25.56473	55.55517	44411
Ras al-Khaimah	25.78953	55.9432	115949
Muzayri‘	23.14355	53.7881	10000
Khawr Fakkān	25.33132	56.34199	33575
Dubai	25.0657	55.17128	1137347
Dibba Al-Fujairah	25.59246	56.26176	30000
Dibba Al-Hisn	25.61955	56.27291	26395
Sharjah	25.33737	55.41206	543733
Ar Ruways	24.11028	52.73056	16000
Al Fujayrah	25.11641	56.34141	62415
Al Ain	24.19167	55.76056	408733
Ajman	25.41111	55.43504	226172
Adh Dhayd	25.28812	55.88157	24716
Abu Dhabi	24.46667	54.36667	603492
Kuhsān	34.65389	61.19778	12087
Tukzār	35.94831	66.42132	12021
Zindah Jān	34.34264	61.74675	10104
Zarghūn Shahr	32.84734	68.44573	13737
Zaṟah Sharan	33.14641	68.79213	7366
Zaranj	30.95962	61.86037	49851
Yangī Qal‘ah	37.46572	69.61131	6541
Tīr Pul	34.59431	61.26895	6979
Tarinkot	32.62998	65.87806	10000
Taloqan	36.73605	69.53451	64256
Tagāw-Bāy	35.69941	66.06164	9096
Tagāb	34.85501	69.64917	6400
Shīnḏanḏ	33.30294	62.1474	29264
Shibirghān	36.66757	65.7529	55641
Shahrak	34.10737	64.3052	15967
Sidqābād	35.02298	69.35112	7407
Sar-e Pul	36.21544	65.93249	52121
Sangīn	32.07275	64.8359	13579
Sang-e Chārak	35.84972	66.43694	15377
Aībak	36.26468	68.01551	47823
Rūdbār	30.15	62.6	11034
Rustāq	37.12604	69.83045	25636
Qarqīn	37.41853	66.04358	15018
Qarchī Gak	37.03999	66.78891	8942
Qarāwul	37.21959	68.7802	24544
Qarah Bāgh	34.94023	61.77589	12412
Qala i Naw	34.98735	63.12891	9000
Qal‘ah-ye Shahr	35.54729	65.5676	7756
Qalāt	32.10575	66.90833	12191
Pārūn	35.42064	70.92261	1000
Pul-e Khumrī	35.94458	68.71512	56369
Pul-e ‘Alam	33.99529	69.02274	13247
Panjāb	34.38795	67.02327	13471
Paghmān	34.58787	68.95091	49157
Uruzgān	32.92775	66.63253	13388
Nīlī	33.72178	66.13023	0
Nahrīn	36.0649	69.13343	22363
Mīr Bachah Kōṯ	34.74999	69.11899	5405
Mīrābād	30.43624	61.8383	14160
Maymana	35.92139	64.78361	75900
Mehtar Lām	34.67139	70.20944	17345
Mazār-e Sharīf	36.70904	67.11087	303282
Lashkar Gāh	31.59382	64.37161	43934
Larkird	35.48936	66.66409	11635
Kushk	33.29565	61.95221	16952
Kunduz	36.72895	68.857	161902
Khōst	33.33951	69.92041	96123
Khulm	36.69736	67.69826	64933
Khāsh	31.52919	62.79055	15133
Khandūd	36.95127	72.318	5521
Khanabad	36.6825	69.11556	71531
Karukh	34.48108	62.5863	17484
Kandahār	31.61332	65.71013	391190
Kabul	34.52813	69.17233	3043532
Jurm	36.86477	70.83421	12106
Jalālābād	34.42647	70.45153	200331
Jabal os Saraj	35.11833	69.23778	15032
Herāt	34.34817	62.19967	272806
Ghormach	35.73062	63.78264	30000
Ghazni	33.55391	68.42096	141000
Gereshk	31.82089	64.57005	43588
Gardez	33.59744	69.22592	103601
Fayzabad	37.11664	70.58002	44421
Farkhār	36.57288	69.85783	10480
Farah	32.37451	62.11638	43561
Kafir Qala	34.66667	61.06667	18086
Imām Şāḩib	37.18897	68.93644	9659
Dasht-e Archī	37.13333	69.16667	8263
Darzāb	35.97744	65.37828	9642
Markaz-e Ḩukūmat-e Darwēshān	31.13231	64.1934	9012
Chīras	35.41674	65.98234	12779
Charikar	35.01361	69.17139	53676
Chahār Burj	34.24475	62.19165	11935
Fayrōz Kōh	34.51952	65.25093	15000
Bāsawul	34.24749	70.87218	6835
Barakī Barak	33.96744	68.9492	22305
Bāmyān	34.82156	67.82734	61863
Balkh	36.75635	66.8972	114883
Baghlān	36.13068	68.70829	108449
Ḩukūmatī Azrah	34.17355	69.64573	12526
Ārt Khwājah	37.08571	69.47958	18623
Āsmār	35.03333	71.35809	15708
Ashkāsham	36.68333	71.53333	12120
Asadābād	34.87311	71.14697	48400
Andkhōy	36.95293	65.12376	29208
Anār Darah	32.7587	61.65397	10023
‘Alāqahdārī Dīshū	30.43206	63.29802	9196
Bāzārak	35.31292	69.51519	65000
Maydanshakhr	34.39561	68.86618	1600
Markaz-e Woluswalī-ye Āchīn	34.12583	70.70778	15098
Sharan	33.17568	68.73045	2200
Saint John’s	17.11717	-61.84573	24226
Piggotts	17.11667	-61.8	1878
Parham	17.09682	-61.77046	969
Falmouth	17.02741	-61.78136	619
Codrington	17.63333	-61.83333	1325
Bolands	17.06565	-61.87466	1657
West End Village	18.17191	-63.14941	0
The Valley	18.21704	-63.05783	2035
The Quarter	18.20799	-63.04178	0
Farrington	18.215	-63.02238	0
Stoney Ground	18.22026	-63.04607	0
South Hill Village	18.19201	-63.08779	0
Sandy Ground Village	18.20118	-63.08998	274
North Side	18.22919	-63.04401	0
North Hill Village	18.20542	-63.07847	0
Island Harbour	18.25601	-63.0102	0
George Hill	18.19939	-63.0665	0
East End Village	18.23333	-63.0	0
Blowing Point Village	18.17648	-63.09375	942
Sandy Hill	18.22104	-63.01329	0
Sarandë	39.87556	20.00528	15147
Tepelenë	40.29583	20.01917	11955
Poliçan	40.61222	20.09806	10663
Peshkopi	41.685	20.42889	14848
Përmet	40.23361	20.35167	10686
Kukës	42.07694	20.42194	17832
Korçë	40.61861	20.78083	58259
Gramsh	40.86972	20.18444	11556
Gjirokastër	40.07583	20.13889	23437
Ersekë	40.33778	20.67889	7890
Elbasan	41.1125	20.08222	100903
Çorovodë	40.50417	20.22722	14046
Burrel	41.61028	20.00889	15405
Bulqizë	41.49167	20.22194	11212
Bilisht	40.6275	20.99	7114
Librazhd-Qendër	41.19694	20.33556	12691
Vlorë	40.46667	19.48972	89546
Tirana	41.3275	19.81889	374801
Shkodër	42.06828	19.51258	88245
Shijak	41.34556	19.56722	14138
Selenicë	40.53056	19.63583	6912
Rrogozhinë	41.07639	19.66528	5620
Rrëshen	41.7675	19.87556	10064
Roskovec	40.7375	19.70222	6657
Pukë	42.04444	19.89972	6495
Peqin	41.04611	19.75111	7513
Patos Fshat	40.64278	19.65083	22679
Mamurras	41.5775	19.69222	8282
Lushnjë	40.94194	19.705	41469
Lezhë	41.78361	19.64361	18695
Laç	41.63556	19.71306	24825
Kuçovë	40.80028	19.91667	18166
Krujë	41.50917	19.79278	21286
Kavajë	41.18556	19.55694	29354
Kamëz	41.38167	19.76028	11026
Fushë-Krujë	41.47833	19.71778	10458
Fier-Çifçi	40.71667	19.56667	60995
Fier	40.72389	19.55611	56297
Durrës	41.32306	19.44139	122034
Cërrik	41.03167	19.97583	14269
Berat	40.70583	19.95222	46866
Ballsh	40.59889	19.73472	10361
Yeghegnadzor	39.76389	45.33239	8200
Vedi	39.91388	44.7251	12192
Vayk’	39.6889	45.46668	5419
Kapan	39.20755	46.40576	33160
Goris	39.51111	46.34168	20379
Hats’avan	39.46405	45.97047	15208
Artashat	39.96144	44.54447	20562
Ararat	39.83069	44.70569	28832
Yerevan	40.18111	44.51361	1093485
Ejmiatsin	40.16557	44.29462	49513
Yeghvard	40.32507	44.48608	10705
Vardenis	40.18329	45.73053	11382
Vardenik	40.13348	45.44311	7709
Tashir	41.12072	44.28462	7318
Step’anavan	41.00995	44.38531	23782
Spitak	40.83221	44.26731	15059
Sevan	40.5473	44.94171	17083
Sarukhan	40.29169	45.13068	6173
Sardarapat	40.13206	44.00969	5348
Noyemberyan	41.17244	44.99917	5119
Noratus	40.37793	45.18048	5426
Nerk’in Getashen	40.14172	45.27087	7010
Metsamor	40.07233	44.29169	8789
Masis	40.06542	44.41618	18911
Martuni	40.13892	45.30548	11037
Vanadzor	40.80456	44.4939	101098
Karanlukh	40.10444	45.28972	5104
Gavarr	40.35398	45.12386	21680
Ijevan	40.87877	45.14851	14737
Hrazdan	40.49748	44.7662	40795
Armavir	40.15446	44.03815	25963
Gyumri	40.7942	43.84528	148381
Garrni	40.11931	44.73442	6827
Dilijan	40.7417	44.8501	13478
Chambarak	40.59655	45.35498	6153
Byureghavan	40.31417	44.59333	6972
Berd	40.88135	45.38901	8374
Ashtarak	40.2991	44.36204	18779
Aparan	40.59323	44.3589	5670
Alaverdi	41.09766	44.67316	13184
Akhuryan	40.78003	43.90027	7672
Abovyan	40.27368	44.63348	35673
Saurimo	-9.66078	20.39155	40498
Lucapa	-8.41915	20.74466	20115
Luau	-10.70727	22.22466	18465
Léua	-11.65	20.45	5168
Uíge	-7.60874	15.06131	60008
Soio	-6.1349	12.36894	67491
Nzeto	-7.23116	12.8666	18352
N’dalatando	-9.29782	14.91162	383100
Mbanza Congo	-6.26703	14.2401	24220
Malanje	-9.54015	16.34096	87046
Luanda	-8.83682	13.23432	2776168
Caxito	-8.57848	13.66425	28224
Camabatela	-8.18812	15.37495	12837
Cabinda	-5.55	12.2	66020
Uacu Cungo	-11.35669	15.11719	10970
Sumbe	-11.20605	13.84371	33277
Quibala	-10.73366	14.97995	8915
Ondjiva	-17.06667	15.73333	10169
Namibe	-15.19611	12.15222	80149
Menongue	-14.6585	17.69099	32203
Luena	-11.78333	19.91667	21115
Lubango	-14.91717	13.4925	102541
Longonjo	-12.90667	15.25333	24346
Lobito	-12.3644	13.53601	207932
Cuito	-12.38333	16.93333	113624
Huambo	-12.77611	15.73917	226145
Chissamba	-12.16667	17.33333	7677
Catumbela	-12.43002	13.54677	16977
Catabola	-12.15	17.28333	18855
Camacupa	-12.01667	17.48333	19150
Caluquembe	-13.78333	14.68333	30300
Caconda	-13.73333	15.06667	10549
Caála	-12.8525	15.56056	21205
Benguela	-12.57626	13.40547	151226
Chela	-12.30261	15.43358	5811
Zárate	-34.09814	-59.02858	88781
Villa Ocampo	-28.48752	-59.35515	19101
Villa María Grande	-31.66565	-59.90182	7101
Villa Lugano	-34.67907	-58.47263	114000
Villa Hernandarias	-31.23101	-59.985	5375
Villaguay	-31.8653	-59.02689	32027
Villa Gesell	-37.26394	-56.97304	23257
Villa Elisa	-32.1632	-58.40082	9334
Veinticinco de Mayo	-27.37679	-54.74312	11928
Urdinarrain	-32.68573	-58.89323	7992
Tigre	-34.42603	-58.57962	31106
Tandil	-37.32167	-59.13316	104325
San Vicente	-26.61667	-54.13333	38247
Santo Tomé	-28.54939	-56.04077	22634
Santo Pipó	-27.14132	-55.40867	5447
Santa Rosa	-28.26318	-58.11891	8330
Santa Lucía	-28.98746	-59.10287	14056
Santa Elena	-30.94768	-59.78696	18410
San Salvador	-31.62487	-58.50524	11626
San Pedro	-26.62207	-54.10842	23736
San Miguel	-27.99585	-57.58964	7396
San Luis del Palmar	-27.5079	-58.55454	15347
San Lorenzo	-28.13306	-58.76733	47626
San José de Feliciano	-30.38452	-58.75167	11137
San José	-27.76979	-55.7826	6452
San Javier	-30.57781	-59.9317	15606
San Isidro	-34.4721	-58.52708	45190
San Clemente del Tuyú	-36.35694	-56.72351	11174
Saladas	-28.25384	-58.62591	18349
Rosario del Tala	-32.30286	-59.14545	13807
Retiro	-34.58333	-58.38333	38635
Resistencia	-27.46056	-58.98389	387158
Reconquista	-29.15	-59.65	90184
Quilmes	-34.72904	-58.26374	518788
Puerto Vilelas	-27.51414	-58.93906	8455
Puerto Tirol	-27.37218	-59.08206	9767
Puerto Rico	-26.79598	-55.02402	17491
Puerto Piray	-26.46779	-54.71476	8557
Puerto Libertad	-25.91641	-54.62089	6143
Puerto Iguazú	-25.59912	-54.57355	32038
Puerto Esperanza	-26.01517	-54.67306	15579
Puerto Eldorado	-26.40843	-54.69463	54189
Presidencia de la Plaza	-27.00147	-59.84243	12231
Posadas	-27.36708	-55.89608	323739
Pontevedra	-34.74785	-58.70072	33515
Pirané	-25.73239	-59.10879	19124
Perugorría	-29.34132	-58.61059	5685
Paso de los Libres	-29.71251	-57.08771	43805
Paso de la Patria	-27.31676	-58.57197	5818
Panambí	-27.72369	-54.91515	5970
Pampa del Indio	-26.06468	-59.91898	11588
Palo Santo	-25.56332	-59.33781	5324
Oberá	-27.48706	-55.11994	56528
Nuestra Señora del Rosario de Caa Catí	-27.75072	-57.62073	7573
Necochea	-38.5545	-58.73961	80478
Morón	-34.6509	-58.61956	319934
Monte Caseros	-30.25359	-57.63626	24671
Montecarlo	-26.5662	-54.757	22229
Mocoretá	-30.61891	-57.96344	6088
Mercedes	-34.65145	-59.43068	52949
Mercedes	-29.18416	-58.07519	30649
Mburucuyá	-28.04532	-58.22835	9012
Margarita Belén	-27.2616	-58.97219	5547
Mar del Plata	-38.00228	-57.55754	553935
Malabrigo	-29.34636	-59.96957	7026
Maciá	-32.1722	-59.39947	5806
Luján	-34.57028	-59.105	81749
Las Toscas	-28.3529	-59.25795	11811
Larroque	-33.03595	-59.00125	6200
La Plata	-34.92145	-57.95453	694167
La Paz	-30.74485	-59.64566	24716
La Leonesa	-27.03786	-58.70347	10067
La Cruz	-29.17443	-56.64326	8591
Jardín América	-27.04346	-55.22698	24905
Itatí	-27.27043	-58.24458	7902
Ibarreta	-25.21438	-59.85851	8687
Gualeguaychú	-33.00937	-58.51722	78676
Gualeguay	-33.14156	-59.30966	33120
Goya	-29.14395	-59.2651	70245
Gobernador Roca	-27.18636	-55.46433	6315
Gobernador Ingeniero Valentín Virasoro	-28.05	-56.03333	28756
General José de San Martín	-26.53743	-59.34158	31758
Garupá	-27.48171	-55.82921	28814
Garuhapé	-26.81768	-54.95665	8259
Formosa	-26.17753	-58.17814	221383
Fontana	-27.41813	-59.02392	26745
Federal	-30.95465	-58.78326	16333
Federación	-31.00621	-57.89962	13789
Esquina	-30.01444	-59.52719	26399
El Soberbio	-27.29847	-54.19877	19571
El Colorado	-26.30808	-59.37291	12780
El Alcázar	-26.71459	-54.81523	5127
Dos de Mayo	-27.02277	-54.68669	14544
Dolores	-36.31321	-57.67918	25190
Curuzú Cuatiá	-29.79171	-58.0546	36390
Corrientes	-27.4806	-58.8341	339067
Concordia	-31.39296	-58.02089	145210
Concepción del Uruguay	-32.48249	-58.23722	67895
Concepción de la Sierra	-27.98311	-55.52031	7398
Comandante Fontana	-25.33453	-59.68212	5655
Colonia Wanda	-25.97408	-54.42806	12779
Colonia Aurora	-27.47428	-54.52498	8407
Colegiales	-34.57365	-58.44924	57000
Clorinda	-25.28481	-57.71851	15000
Chajarí	-30.75048	-57.97962	30655
Cerro Azul	-27.6331	-55.4962	5323
Capioví	-26.92998	-55.06084	5860
Candelaria	-27.4595	-55.74536	11039
Campo Viera	-27.38333	-55.03333	9228
Campo Ramón	-27.46108	-55.01901	10088
Campo Grande	-27.2077	-54.97977	12040
Campana	-34.16874	-58.95914	81612
Buenos Aires	-34.61315	-58.37723	13076300
Bovril	-31.34311	-59.44512	7977
Bernardo de Irigoyen	-26.2552	-53.64581	10889
Barranqueras	-27.48132	-58.93925	50823
Azul	-36.77698	-59.85854	53941
Avellaneda	-29.11761	-59.65834	23077
Aristóbulo del Valle	-27.09625	-54.89626	20683
Alvear	-29.09683	-56.55043	7917
Alba Posse	-27.56978	-54.68262	6652
Zapala	-38.89916	-70.05442	31534
Yuto	-23.64342	-64.47194	7732
Yerba Buena	-26.81667	-65.31667	50783
Yacimiento Río Turbio	-51.57321	-72.3508	6650
Villa Regina	-39.1	-67.06667	31209
Villa Paula de Sarmiento	-31.4933	-68.53838	19092
Villa Ojo de Agua	-29.50003	-63.69377	5832
Villa Nueva	-32.43293	-63.24763	16841
Villa María	-32.40751	-63.24016	92453
Villa La Angostura	-40.76173	-71.64631	7526
Villa Huidobro	-34.83826	-64.58686	5155
Villa General Belgrano	-31.97542	-64.5559	5888
Villa Dolores	-31.94585	-65.18958	28009
Villa de Soto	-30.85523	-64.99947	7303
Villa del Totoral	-30.81667	-63.71667	7110
Villa Constitución	-33.22778	-60.3297	44271
Chañar Ladeado	-33.32524	-62.03831	5639
Villa Carlos Paz	-31.42414	-64.49778	69451
Villa Cañás	-34.00565	-61.60757	9328
Villa Berthet	-27.29174	-60.41263	12029
Villa Ángela	-27.57383	-60.71526	43511
Villa Allende	-31.29458	-64.29538	21683
Viedma	-40.81345	-62.99668	48940
Vicuña Mackenna	-33.91965	-64.39215	8994
Victorica	-36.21505	-65.43586	6565
Victoria	-32.61841	-60.15478	25139
Viale	-31.86782	-60.00722	8939
Vera	-29.4593	-60.21261	19797
Venado Tuerto	-33.74556	-61.96885	72340
Veinticinco de Mayo	-37.7741	-67.71638	6962
Veinticinco de Mayo	-35.4323	-60.17271	24668
Valle Hermoso	-31.11732	-64.48084	5486
Ushuaia	-54.8	-68.3	58028
Unquillo	-31.23073	-64.31615	15369
Trevelin	-43.0858	-71.46386	6395
Tres Isletas	-26.34067	-60.43207	24747
Tres Arroyos	-38.37394	-60.27978	47136
Trelew	-43.24895	-65.30505	93442
Trancas	-26.21575	-65.28492	6658
Totoras	-32.5844	-61.16852	9587
Tostado	-29.23202	-61.76917	14000
Tinogasta	-28.06319	-67.56488	14509
Tilisarao	-32.73292	-65.29109	5478
Tilcara	-23.57757	-65.3509	5640
Termas de Río Hondo	-27.49362	-64.85972	27838
Tartagal	-22.51637	-63.80131	60819
Tancacha	-32.24309	-63.9807	5184
Tafí Viejo	-26.73201	-65.25921	48459
Taco Pozo	-25.61667	-63.28333	8470
Suncho Corral	-27.93357	-63.42938	6087
Sunchales	-30.94404	-61.56148	18757
Simoca	-27.26272	-65.35647	7939
Sierra Grande	-41.60603	-65.35574	6978
Senillosa	-39.01412	-68.43281	6394
Sastre	-31.76762	-61.82887	5521
Sarmiento	-45.58815	-69.06996	8292
Santo Tomé	-31.66274	-60.7653	59072
Santiago del Estero	-27.79511	-64.26149	354692
Santa Sylvina	-27.83261	-61.13747	9040
Santa Rosa de Río Primero	-31.15231	-63.40191	6788
Santa Rosa de Calamuchita	-32.06905	-64.53631	9504
Santa Rosa	-36.61667	-64.28333	111424
Santa Lucía	-31.53987	-68.49503	43565
Santa Fe de la Vera Cruz	-31.63333	-60.7	489505
San Salvador de Jujuy	-24.19457	-65.29712	305891
San Ramón de la Nueva Orán	-23.13705	-64.32426	74059
San Rafael	-34.61772	-68.33007	109163
San Pedro	-24.23127	-64.86614	58430
San Nicolás de los Arroyos	-33.33578	-60.22523	127742
San Miguel de Tucumán	-26.82414	-65.2226	781023
San Martín de los Andes	-40.15789	-71.35337	23519
San Martín	-33.08103	-68.46814	82549
San Martín	-31.42957	-68.50065	10140
San Luis	-33.29501	-66.33563	183982
San Justo	-30.78913	-60.59189	21809
San Juan	-31.5375	-68.53639	447048
San José de Jáchal	-30.24057	-68.74693	21018
San Jorge	-31.89618	-61.85984	16873
San Francisco	-31.42797	-62.08266	59062
San Fernando del Valle de Catamarca	-28.46957	-65.78524	188812
San Cristóbal	-30.31053	-61.23724	14286
San Carlos Centro	-31.72864	-61.09192	10465
San Bernardo	-27.28782	-60.71252	11101
San Benito	-31.78371	-60.44156	6771
San Antonio Oeste	-40.73193	-64.94769	16966
San Agustín de Valle Fértil	-30.63353	-67.46821	6864
Sampacho	-33.3839	-64.72211	7238
Salta	-24.7859	-65.41166	512686
Salsipuedes	-31.13725	-64.29589	6411
Rufino	-34.26827	-62.71262	18361
Rosario	-32.94682	-60.63932	1173533
Roldán	-32.89846	-60.90681	12468
Río Tercero	-32.17301	-64.11405	53389
Río Segundo	-31.6526	-63.9099	18155
Río Gallegos	-51.62261	-69.21813	85700
Río Cuarto	-33.13067	-64.34992	153757
Río Ceballos	-31.16486	-64.32241	16632
Recreo	-31.49076	-60.73299	12798
Recreo	-29.28184	-65.06096	14204
Realicó	-35.03658	-64.2447	7151
Rawson	-43.30016	-65.10228	26335
Rafaela	-31.25033	-61.4867	88713
Rada Tilly	-45.93333	-67.53333	6208
Quitilipi	-26.86913	-60.21683	32083
Quimilí	-27.63333	-62.41667	10959
Punta Alta	-38.87588	-62.07359	57209
San Julián	-49.30554	-67.72743	6143
Puerto Madryn	-42.7692	-65.03851	64555
Puerto Deseado	-47.75034	-65.89382	10237
Presidencia Roque Sáenz Peña	-26.78522	-60.43876	81879
Pozo del Molle	-32.0186	-62.91984	5429
Pocito	-31.68333	-68.58333	40969
Plottier	-38.96667	-68.23333	25186
Plaza Huincul	-38.92598	-69.20863	12273
Pilar	-31.6789	-63.87964	12488
Pico Truncado	-46.7949	-67.95731	14985
Pergamino	-33.88995	-60.57357	87652
Pérez	-32.99835	-60.76791	24436
Paraná	-31.73197	-60.5238	262295
Pampa del Infierno	-26.50517	-61.17436	8176
Palpalá	-24.25647	-65.21163	48199
Palma Sola	-23.96336	-64.29872	5318
Oncativo	-31.91353	-63.68201	12660
Oliva	-32.04158	-63.56978	11629
Olavarría	-36.89272	-60.32254	86320
Nueve de Julio	-35.44437	-60.88313	34718
Nueve de Julio	-31.66914	-68.39023	7652
Neuquén	-38.95161	-68.0591	242092
Morteros	-30.71164	-61.99862	15129
Monteros	-27.16741	-65.49832	23771
Monte Maíz	-33.20462	-62.60085	6920
Monte Cristo	-31.34312	-63.94437	6914
Monte Buey	-32.91642	-62.45669	5497
Mina Clavero	-31.72101	-65.00619	6855
Merlo	-32.34288	-65.01396	11159
Mendoza	-32.89084	-68.82717	876884
Marcos Juárez	-32.6978	-62.10672	24226
Malvinas Argentinas	-31.38333	-64.06667	8628
Malagueño	-31.46467	-64.3584	9364
Machagai	-26.92614	-60.04955	28070
Los Frentones	-26.4077	-61.41367	6610
Los Altos	-28.04845	-65.49945	6421
Lincoln	-34.86649	-61.5302	41808
Libertador General San Martín	-23.80644	-64.78757	49267
Leones	-32.66174	-62.29678	9971
La Toma	-33.05258	-65.62385	6663
Las Varillas	-31.87208	-62.71946	14649
Las Rosas	-32.47661	-61.58041	12793
Las Parejas	-32.68478	-61.51637	11317
Las Lomitas	-24.70955	-60.59303	10354
Las Lajitas	-24.68333	-64.25	9151
Las Higueras	-33.09231	-64.28899	5282
Las Heras	-46.54186	-68.93593	9303
Las Breñas	-27.08966	-61.08161	26955
La Rioja	-29.41105	-66.85067	162620
La Quiaca	-22.10236	-65.59299	14751
Lamarque	-39.42304	-65.70208	7819
Laguna Paiva	-31.30391	-60.65894	12250
Laguna Larga	-31.77652	-63.80104	7137
La Falda	-31.08841	-64.48987	15112
La Cumbre	-30.98201	-64.49139	7235
La Cocha	-27.77729	-65.57035	7066
La Carlota	-33.41993	-63.29769	11490
La Calera	-31.34377	-64.33529	24796
Laboulaye	-34.12662	-63.39119	19908
Laborde	-33.15319	-62.85661	5492
Justo Daract	-33.8594	-65.18277	9680
Justiniano Posse	-32.88411	-62.67788	7406
Junín de los Andes	-39.95043	-71.06936	10592
Junín	-34.58382	-60.94332	85007
Joaquín V. González	-25.08333	-64.18333	19185
Jesús María	-30.98153	-64.09424	26825
Intendente Alvear	-35.23383	-63.59205	6990
Ingenio La Esperanza	-24.22554	-64.83896	5002
Ingeniero Luis A. Huergo	-39.08333	-67.23333	6483
Ingeniero Jacobacci	-41.3292	-69.55015	5785
Ingeniero Guillermo N. Juárez	-23.9	-61.85	10357
Icaño	-28.91934	-65.32817	6857
Humahuaca	-23.20544	-65.35048	11369
Huinca Renancó	-34.84038	-64.3758	8637
Huillapima	-28.72533	-65.9787	7779
Huerta Grande	-31.07524	-64.49063	5630
Hernando	-32.42657	-63.73333	10486
Hermoso Campo	-27.60816	-61.34441	7435
Guatraché	-37.66776	-63.53021	5271
Graneros	-27.64934	-65.4383	5263
Granadero Baigorria	-32.85683	-60.71754	32427
Gobernador Gálvez	-33.03016	-60.64045	74650
General Villegas	-35.03285	-63.01252	16270
General Roca	-39.03333	-67.58333	73212
General Ramírez	-32.17601	-60.20079	8614
General Pinedo	-27.31667	-61.28333	15741
General Pico	-35.65662	-63.75682	57029
General Levalle	-34.01472	-63.92413	5492
General Fernández Oro	-38.95297	-67.92489	6813
General Enrique Mosconi	-22.59588	-63.81255	19811
General Conesa	-40.1	-64.43333	5595
General Cabrera	-32.81313	-63.87243	10351
General Acha	-37.37698	-64.60431	12536
Gálvez	-32.02927	-61.22103	18374
Gaimán	-43.2897	-65.4929	5753
Funes	-32.91568	-60.80995	14750
Fray Luis Beltrán	-39.31667	-65.76667	6401
Fray Luis A. Beltrán	-32.79122	-60.72819	14390
Fraile Pintado	-23.94079	-64.79943	13682
Firmat	-33.45937	-61.4832	18294
Fiambalá	-27.68705	-67.6149	8061
Famaillá	-27.05413	-65.40329	30951
Esquel	-42.91147	-71.31947	28486
Esperanza	-31.4488	-60.93173	35885
Embarcación	-23.21003	-64.09965	23961
Embalse	-32.18	-64.41809	15900
El Trébol	-32.2008	-61.7014	10871
El Quebrachal	-25.28333	-64.06667	10243
El Galpón	-25.38069	-64.65259	8357
El Carril	-25.0741	-65.49174	9780
El Calafate	-50.34075	-72.27682	8000
El Bolsón	-41.96051	-71.53336	15537
Eduardo Castex	-35.91501	-64.29448	9861
Diamante	-32.06641	-60.63837	19545
Devoto	-31.40431	-62.30634	5597
Despeñaderos	-31.81626	-64.28989	5645
Deán Funes	-30.42036	-64.34984	20164
Cutral-Có	-38.93424	-69.23052	47380
Cruz del Eje	-30.72644	-64.80387	28166
Cruz Alta	-33.00887	-61.80746	6862
Crespo	-32.02873	-60.30658	18296
Cosquín	-31.24508	-64.46563	19070
Corzuela	-26.95374	-60.96928	10470
Corral de Bustos	-33.28205	-62.18463	9882
Coronel Suárez	-37.45467	-61.93343	27000
Coronel Moldes	-33.6227	-64.59711	8104
Coronel Du Graty	-27.68038	-60.91462	9140
Coronel Dorrego	-38.71867	-61.28733	11644
Coronda	-31.97263	-60.91983	16975
Córdoba	-31.4135	-64.18105	1428214
Concepción del Bermejo	-26.59926	-60.94617	5830
Comodoro Rivadavia	-45.86413	-67.49656	140850
Clodomira	-27.5744	-64.13108	9043
Cipolletti	-38.93392	-67.99032	75078
Cinco Saltos	-38.82225	-68.06293	19819
Chos Malal	-37.37809	-70.27085	11721
Choele Choel	-39.26667	-65.68333	9791
Chivilcoy	-34.89566	-60.01667	54514
Chimbas	-31.48333	-68.53333	73829
Chilecito	-29.16195	-67.4974	42248
Chicoana	-25.10088	-65.5331	8468
Charata	-27.21438	-61.18795	27813
Chamical	-30.36002	-66.31399	13383
Chacabuco	-34.64167	-60.47389	34587
Cervantes	-39.05	-67.38333	5173
Ceres	-29.881	-61.94504	13063
Centenario	-38.82955	-68.1318	28956
Caucete	-31.65179	-68.28105	33609
Catriel	-37.87907	-67.7956	15169
Castelli	-25.94679	-60.61947	36588
Casilda	-33.04417	-61.16806	32002
Carcarañá	-32.85679	-61.15331	15619
Capitán Bermúdez	-32.82262	-60.71852	27060
Capilla del Monte	-30.86088	-64.52515	9085
Capayán	-28.76105	-66.05025	6358
Canals	-33.56542	-62.88927	8343
Cañada de Gómez	-32.81636	-61.39493	36000
Campo Largo	-26.80077	-60.84215	10743
Campo Gallo	-26.58333	-62.85	5455
Calingasta	-31.33084	-69.40783	8176
Calilegua	-23.77368	-64.77002	5174
Caleta Olivia	-46.43929	-67.52814	36077
Calchaquí	-29.88767	-60.28697	10221
Caimancito	-23.74069	-64.5937	5403
Cafayate	-26.07286	-65.97766	11785
Brinkmann	-30.86589	-62.03742	8237
Berrotarán	-32.451	-64.38867	6446
Beltrán	-27.82913	-64.06098	5321
Bell Ville	-32.62591	-62.68873	35105
Bella Vista	-27.03424	-65.30196	15126
Balnearia	-31.0088	-62.66733	5585
Bahía Blanca	-38.71959	-62.27243	276546
Aviá Terai	-26.68532	-60.7292	6821
Arroyo Seco	-33.15489	-60.50863	20008
Arroyito	-31.42022	-63.05002	19577
Armstrong	-32.78215	-61.60222	10388
Arias	-33.64411	-62.40272	6928
Arauco	-28.5805	-66.79438	13720
Apolinario Saravia	-24.43276	-63.99535	8595
Andalgalá	-27.60012	-66.31794	14068
Añatuya	-28.46064	-62.83472	20261
Alta Gracia	-31.65292	-64.42826	40384
Almafuerte	-32.19296	-64.25559	10534
Allen	-38.97736	-67.82714	26083
Alderetes	-26.81667	-65.13333	38466
Albardón	-31.43722	-68.52556	20413
Aguilares	-27.4338	-65.61427	32494
Adelia María	-33.63152	-64.02097	6434
Abra Pampa	-22.72049	-65.69697	9425
Villa Santa Rita	-34.61082	-58.481	34000
Villa Mercedes	-33.67571	-65.45783	96781
La Punta	-33.18368	-66.3127	15000
San Carlos de Bariloche	-41.14557	-71.30822	95394
Río Turbio	-51.53587	-72.33673	6650
Adrogué	-34.80041	-58.38384	28265
Taulaga	-11.05528	-171.08833	37
Ta`ū	-14.23361	-169.51444	873
Tāfuna	-14.33583	-170.72	11017
Pago Pago	-14.27806	-170.7025	11500
Neu-Guntramsdorf	48.0642	16.31573	9071
Zwettl Stift	48.61667	15.2	11718
Zistersdorf	48.53333	16.75	5661
Zirl	47.28333	11.23333	6567
Zeltweg	47.18333	14.75	7726
Zell am See	47.32556	12.79444	10046
Ybbs an der Donau	48.16667	15.08333	5676
Wörgl	47.48906	12.06174	11265
Wördern	48.334	16.21016	6886
Wolkersdorf im Weinviertel	48.38333	16.51667	6416
Wolfurt	47.46667	9.75	8110
Wolfsberg	46.84056	14.84417	25610
Wilhelmsburg	48.10571	15.60539	6718
Wiener Neustadt	47.8	16.25	38481
Wiener Neudorf	48.08278	16.31384	8530
Vienna	48.20849	16.37208	1691468
Wetzelsdorf	47.05293	15.39923	14314
Wernberg	46.61667	13.93333	5070
Wels	48.16667	14.03333	57946
Weiz	47.21667	15.61667	9128
Weinzierl bei Krems	48.4	15.6	24092
Wattens	47.28333	11.6	7517
Waidhofen an der Ybbs	47.96004	14.77361	11774
Waidhofen an der Thaya	48.81667	15.28333	5838
Vorchdorf	48.00388	13.92122	7455
Völs	47.25	11.33333	6573
Völkermarkt	46.66222	14.63444	11373
Voitsberg	47.03333	15.15	9980
Vöcklabruck	48.01667	13.65	11887
Villach	46.61028	13.85583	58882
Velden am Wörthersee	46.61301	14.0413	8817
Tulln	48.32829	16.05858	14201
Trofaiach	47.42524	15.00681	8313
Traun	48.22656	14.23459	23959
Traismauer	48.35	15.73333	5815
Traiskirchen	48.01485	16.29324	16212
Timelkam	48.00394	13.6076	5855
Thalgau	47.83333	13.25	5501
Ternitz	47.71565	16.03575	15153
Telfs	47.30707	11.06817	14028
Tamsweg	47.12808	13.81102	6126
Strasswalchen	47.98333	13.25	7145
Strasshof an der Nordbahn	48.31667	16.66667	7637
Stockerau	48.38333	16.21667	14831
Steyr	48.04274	14.42127	39566
Spittal an der Drau	46.8	13.5	16363
Hall in Tirol	47.28333	11.51667	12460
Sierning	48.04343	14.30935	8722
Sieghartskirchen	48.25531	16.01223	7062
Seekirchen am Wallersee	47.9	13.13333	9865
Seeboden	46.81909	13.5143	6221
Schwechat	48.13333	16.46667	15711
Schwaz	47.35169	11.71014	12507
Schrems	48.78333	15.06667	5811
Sankt Veit an der Glan	46.76806	14.36028	13116
Sankt Valentin	48.16667	14.51667	9063
Sankt Pölten	48.2	15.63333	49001
Sankt Johann im Pongau	47.35	13.2	10887
Sankt Andrä	46.76829	14.81991	10250
Salzburg	47.79941	13.04399	150269
Saalfelden am Steinernen Meer	47.42681	12.848	16119
Rum	47.28333	11.45	8498
Rottenmann	47.51667	14.35	5561
Ried im Innkreis	48.21123	13.48855	11511
Reutte	47.48333	10.71667	5851
Rankweil	47.27108	9.64308	11455
Purkersdorf	48.20769	16.17539	8327
Purgstall	48.05841	15.13478	5247
Pressbaum	48.18333	16.08333	6083
Poysdorf	48.66667	16.63333	5653
Pottendorf	47.9	16.38333	6105
Pinkafeld	47.36667	16.11667	5257
Perg	48.25	14.63333	7644
Perchtoldsdorf	48.11935	16.26607	14041
Paternion	46.71417	13.63611	6301
Pasching	48.25931	14.20369	6143
Oberwart	47.28971	16.20595	6879
Neusiedl am See	47.94901	16.8417	5949
Neunkirchen	47.72096	16.08107	11313
Nenzing	47.18436	9.70539	5856
Mürzzuschlag	47.6	15.68333	9410
Mödling	48.08605	16.28921	20710
Mittersill	47.28333	12.48333	5680
Mistelbach	48.57	16.57667	10820
Micheldorf in Oberösterreich	47.87764	14.13357	5902
Melk	48.22737	15.33186	5272
Mattersburg	47.73333	16.4	6448
Matrei in Osttirol	47.0	12.53333	5076
Sankt Florian	48.20568	14.37836	5913
Mariatrost	47.1	15.5	9217
Maria Enzersdorf	48.1	16.28333	8085
Marchtrenk	48.18333	14.11667	11666
Lustenau	47.42642	9.65851	20218
Lochau	47.53333	9.75	5209
Linz	48.30639	14.28611	181162
Liezen	47.56667	14.23333	6903
Lienz	46.8289	12.76903	12270
Leonding	48.27965	14.2533	22736
Leoben	47.3765	15.09144	24809
Lenzing	47.97326	13.60846	5044
Leibnitz	46.78161	15.53836	7029
Lauterach	47.48306	9.73306	9212
Langenzersdorf	48.3	16.35	7733
Langenlois	48.46667	15.66667	7081
Landeck	47.13988	10.56593	7351
Laakirchen	47.98188	13.82166	9569
Laa an der Thaya	48.71667	16.38333	6084
Kufstein	47.58333	12.16667	16115
Kuchl	47.62647	13.1448	6668
Krieglach	47.53333	15.55	5236
Kremsmünster	48.0529	14.12919	6626
Krems an der Donau	48.40921	15.61415	23932
Kottingbrunn	47.95096	16.22715	7184
Korneuburg	48.35	16.33333	11498
Köflach	47.06667	15.08333	10447
Knittelfeld	47.21667	14.81667	12704
Klosterneuburg	48.30521	16.32522	24843
Klagenfurt am Wörthersee	46.62472	14.30528	90610
Kitzbühel	47.44637	12.39215	8818
Kindberg	47.5	15.45	5790
Kapfenberg	47.44458	15.29331	21819
Judenburg	47.16667	14.66667	9992
Jenbach	47.39173	11.77245	6806
Innsbruck	47.26266	11.39454	112467
Imst	47.24504	10.73974	9225
Hörsching	48.22627	14.17786	5312
Horn	48.66274	15.65663	6485
Hörbranz	47.55	9.75	6414
Hopfgarten im Brixental	47.45	12.16667	5314
Hollabrunn	48.55	16.08333	10966
Hohenems	47.36667	9.68306	14072
Höchst	47.45934	9.6405	7207
Himberg	48.08333	16.43333	5534
Herzogenburg	48.28137	15.69431	7866
Hermagor	46.62722	13.36722	7242
Hartberg	47.28333	15.96667	6634
Hard	47.48306	9.68306	11766
Hallein	47.68333	13.1	18980
Hainburg an der Donau	48.14627	16.94504	5622
Groß-Enzersdorf	48.20278	16.55083	8791
Grödig	47.73333	13.03333	6918
Graz	47.06667	15.45	222326
Gratkorn	47.13333	15.35	6806
Götzis	47.33306	9.63306	10342
Gösting	47.09788	15.39777	10211
Gmunden	47.91839	13.79933	13287
Gmünd	48.7683	14.9808	5811
Gloggnitz	47.67487	15.93893	6213
Gleisdorf	47.10559	15.71011	5245
Gerasdorf bei Wien	48.29447	16.46765	8948
Garsten	48.0224	14.40747	6657
Gänserndorf	48.33925	16.72016	8588
Gallneukirchen	48.35363	14.41604	6282
Fürstenfeld	47.05	16.08333	5962
Frohnleiten	47.26667	15.31667	6629
Friesach	46.95528	14.40583	5369
Freistadt	48.51103	14.50453	7574
Frankenburg	48.06844	13.49065	5162
Fohnsdorf	47.2	14.68333	8203
Ferlach	46.52694	14.30194	7661
Feldkirchen in Kärnten	46.72368	14.0958	14440
Feldkirchen an der Donau	48.34524	14.05134	5286
Feldkirch	47.23306	9.6	31082
Enns	48.21346	14.47612	10816
Engerwitzdorf	48.34507	14.44204	8510
Eisenstadt	47.84565	16.52327	12190
Eisenerz	47.53333	14.88333	5987
Ebreichsdorf	47.95	16.4	9509
Eberndorf	46.59139	14.64361	6088
Ebenthal	46.60806	14.36417	7809
Ebensee	47.80716	13.779	8376
Ebbs	47.63333	12.21667	5088
Dornbirn	47.41427	9.74195	43013
Deutsch-Wagram	48.29972	16.56667	7153
Deutschlandsberg	46.81528	15.22222	8049
Bruck an der Mur	47.41667	15.28333	13254
Bruck an der Leitha	48.01667	16.76667	7339
Bregenz	47.50311	9.7471	27611
Braunau am Inn	48.25628	13.04343	16403
Bludenz	47.15476	9.82255	13904
Bischofshofen	47.41667	13.21667	10144
Berndorf	47.94567	16.10973	8796
Bergheim	47.83333	13.03333	5031
Bad Vöslau	47.96533	16.21359	11013
Bad Ischl	47.71109	13.61893	14267
Bad Hofgastein	47.17274	13.09871	7002
Bad Goisern	47.64252	13.61609	7869
Bad Gastein	47.11547	13.13467	5947
Baden	48.00543	16.23264	24893
Bad Aussee	47.60998	13.78243	5210
Asten	48.21941	14.41784	6516
Arnoldstein	46.54611	13.71	6923
Ansfelden	48.20969	14.29004	14936
Amstetten	48.1229	14.87206	22832
Altmünster	47.90219	13.76415	9651
Altach	47.35	9.65	6040
Abtenau	47.56373	13.34599	5828
Absam	47.3	11.5	6594
Finkenstein am Faaker See	46.56556	13.86528	8406
Attnang-Puchheim	48.00833	13.71667	8908
Ansfelden	47.965	13.04944	15673
Whyalla	-33.03268	137.56483	19645
Wembley	-31.93333	115.8	9614
Wanneroo	-31.75	115.8	10931
Victor Harbor	-35.55042	138.62154	7760
Swan View	-31.88333	116.05	7896
Subiaco	-31.9485	115.8268	7627
Spearwood	-32.10534	115.77797	8941
South Perth	-31.98333	115.86667	11301
Seaton	-34.9	138.51667	9704
Scarborough	-31.89578	115.76431	12593
Salisbury	-34.76667	138.63333	6648
Safety Bay	-32.30463	115.74213	7303
Rockingham	-32.27682	115.72978	108022
Prospect	-34.88241	138.5933	20217
Port Pirie	-33.19176	138.01746	13206
Port Lincoln	-34.72625	135.87442	13044
Port Hedland	-20.31215	118.61059	15044
Port Augusta West	-32.48611	137.75833	12133
Port Augusta	-32.49597	137.77281	13257
Perth	-31.95224	115.8614	1896548
Nuriootpa	-34.46825	138.99767	5031
Northam	-31.64932	116.67423	5855
Newman	-23.35644	119.73553	5138
Nedlands	-31.98184	115.8073	10020
Murray Bridge	-35.11986	139.27345	19577
Mount Isa	-20.72523	139.49727	22785
Mount Barker	-35.06667	138.86667	8357
Mosman Park	-32.00538	115.7638	8251
Morphett Vale	-35.13333	138.51667	22602
Modbury	-34.83333	138.68333	5570
McMinns Lagoon	-12.55397	131.11165	5025
Maylands	-31.93097	115.89486	10447
Margaret River	-33.9536	115.07391	5584
Mandurah	-32.5269	115.7217	83294
Maddington	-32.05	115.98333	9137
Kwinana	-32.23013	115.78128	30433
Kununurra	-15.77825	128.74208	5679
Kenwick	-32.03333	115.96667	5150
Kelmscott	-32.12434	116.0259	9419
Katherine	-14.46517	132.26347	5849
Kalgoorlie	-30.74614	121.4742	31107
Ingle Farm	-34.83333	138.63333	8474
Hope Valley	-34.83333	138.7	8223
Happy Valley	-35.08333	138.53333	11531
Grange	-34.90223	138.49022	5238
Gosnells	-32.081	116.0054	17277
Golden Grove	-34.78333	138.73333	8976
Geraldton	-28.77897	114.61459	26872
Gawler	-34.60251	138.74902	20006
Fremantle	-32.05454	115.75127	24835
Findon	-34.9	138.53333	5451
Esperance	-33.85919	121.89164	7888
Darwin	-12.46113	130.84185	129062
Cottesloe	-32.0	115.76667	7065
Collie	-33.36206	116.15617	6336
Carnarvon	-24.88258	113.65713	7392
Campbelltown	-34.88333	138.66667	7005
Busselton	-33.65249	115.3455	21898
Bunbury	-33.32711	115.64137	68248
Broome	-17.95538	122.23922	12766
Boulder	-30.78204	121.4912	5178
Bentley	-32.0	115.91667	8323
Bassendean	-31.90906	115.9437	8776
Australind	-33.2792	115.71504	8716
Armadale	-32.14607	116.0093	62296
Applecross	-32.01667	115.83333	6336
Alice Springs	-23.69748	133.88362	25186
Aldinga	-35.28333	138.48333	5984
Albany	-35.0031	117.86595	33650
Adelaide	-34.92866	138.59863	1225235
Eaton	-33.31664	115.70503	7481
Quinns Rocks	-31.67379	115.70372	7991
East Fremantle	-32.03823	115.7676	6698
Claremont	-31.97961	115.7823	7152
Bicton	-32.02778	115.78333	6017
Attadale	-32.02489	115.802	5719
Warnbro	-32.34017	115.7473	11421
Mullaloo	-31.77896	115.73676	5869
Young	-34.3135	148.30107	7501
Yeppoon	-23.12683	150.74406	13285
Yass	-34.84036	148.90987	5591
Yarrawonga	-36.01923	145.99973	5604
Yarraville	-37.81667	144.9	13747
Wynyard	-40.9897	145.72617	5706
Wynnum	-27.44527	153.15813	11719
Woodridge	-27.63333	153.1	20650
Wodonga	-36.12179	146.88809	31605
Windsor	-37.85344	144.99241	7069
Williamstown	-37.857	144.89769	13203
Werribee	-37.9	144.66667	37737
Wellington Point	-27.48333	153.25	10713
Wellington	-32.55588	148.94508	5428
Watsonia	-37.71667	145.08333	5146
Warwick	-28.21901	152.03438	12562
Warrnambool	-38.38176	142.48799	33982
Warrandyte	-37.75	145.23333	5520
Warragul	-38.15912	145.93118	9127
Wantirna South	-37.88333	145.21667	17477
Wantirna	-37.85	145.21667	13978
Wangaratta	-36.35846	146.32056	16845
Wagga Wagga	-35.12577	147.35375	46913
Victoria Point	-27.58329	153.31172	13755
Vermont	-37.83616	145.19428	9902
Urangan	-25.29214	152.90535	8007
Upwey	-37.9	145.33333	6760
Upper Coomera	-27.9	153.3	6029
Ulverstone	-41.16026	146.18242	9604
Ulladulla	-35.35906	150.47247	9250
Tumut	-35.30016	148.22505	6526
Tullamarine	-37.70128	144.881	6271
Truganina	-37.81667	144.75	9138
Traralgon	-38.19528	146.5415	21960
Townsville	-19.26639	146.80569	196219
Torquay	-25.28496	152.87886	5693
Toowoomba	-27.56056	151.95386	131258
Toorak	-37.84165	145.01438	12871
Thornbury	-37.75	145.0	17434
Thomastown	-37.68333	145.01667	20331
Tewantin	-26.39104	153.03432	10660
Templestowe Lower	-37.76667	145.11667	13152
Tarragindi	-27.53333	153.03333	9439
Tarneit	-37.86667	144.66667	21690
Taree	-31.91099	152.45387	16621
Tamworth	-31.09048	150.92905	47597
Sydney	-33.86785	151.20732	4627345
Sydenham	-37.7	144.76667	10323
Swan Hill	-35.33781	143.5544	9276
Surrey Hills	-37.81667	145.1	13133
Surfers Paradise	-28.00274	153.42999	18501
Sunnybank	-27.58333	153.05	16442
Sunbury	-37.57742	144.72607	29925
Strathpine	-27.30414	152.98977	9532
Port Stephens	-32.71314	152.06623	27531
Stawell	-37.05632	142.78088	5737
Springvale South	-37.96667	145.15	12184
Springvale	-37.94853	145.15274	19771
Southport	-27.96724	153.39796	28315
South Melbourne	-37.83333	144.96667	8790
South Grafton	-29.7076	152.92627	16399
Somerville	-38.21667	145.16667	7015
Slacks Creek	-27.65	153.15	5965
Singleton	-32.56742	151.16603	13665
Shepparton	-36.38047	145.39867	38773
Sebastopol	-37.58532	143.83953	8045
Seaford	-38.1	145.13333	16033
Scoresby	-37.9	145.23333	5892
Sale	-38.11095	147.06802	13186
Saint Kilda	-37.8676	144.98099	17795
Saint Albans	-37.73333	144.8	35091
Rye	-38.36667	144.81667	8160
Rutherford	-32.71667	151.53333	10182
Rowville	-37.93333	145.23333	34145
Rosebud	-38.35542	144.9068	12501
Rosanna	-37.75	145.06667	7697
Roma	-26.56741	148.78751	5496
Rockhampton	-23.38032	150.50595	61724
Riverstone	-33.68333	150.86667	6096
Ringwood East	-37.81667	145.25	9748
Richmond	-37.81819	145.00176	26121
Richmond	-33.59956	150.75142	5560
Reservoir	-37.71667	145.0	47637
Redlynch	-16.88333	145.7	6069
Red Hill	-20.31667	148.5	5406
Redfern	-33.89279	151.20415	11482
Rathmines	-33.03773	151.58443	8944
Queanbeyan	-35.35493	149.232	40661
Quakers Hill	-33.73333	150.88333	25017
Pymble	-33.74386	151.14188	9368
Preston	-37.75	145.01667	29925
Port Melbourne	-37.83961	144.94228	13293
Port Macquarie	-31.43084	152.90894	41491
Portland	-38.3462	141.60257	8841
Point Cook	-37.91482	144.75088	32413
Penshurst	-33.96667	151.08333	11692
Penrith	-33.75	150.7	11813
Pennant Hills	-33.73783	151.07216	6830
Pascoe Vale	-37.73333	144.93333	15000
Parkville	-37.78333	144.95	6193
Parkes	-33.1372	148.1759	10026
Parkdale	-37.98333	145.06667	11185
Palm Beach	-28.11694	153.46584	13494
Pakenham South	-38.13333	145.51667	32911
Ormond	-37.9	145.03333	7711
Orange	-33.28397	149.10018	39329
Oatley	-33.98004	151.07201	9531
Nunawading	-37.82043	145.17308	10947
Nowra	-34.88422	150.60036	34479
North Wonthaggi	-38.6	145.6	5985
North Sydney	-33.839	151.2072	6060
North Melbourne	-37.8	144.96667	11755
Northmead	-33.78333	150.98333	6968
North Fitzroy	-37.78862	144.97885	11473
Northcote	-37.76667	145.0	22920
Noosaville	-26.4	153.06667	6528
Noble Park	-37.96667	145.16667	28377
Newtown	-33.89835	151.17754	13552
Newport	-37.84427	144.88483	11987
Newport	-33.65517	151.32126	9227
New Norfolk	-42.78261	147.0587	5526
Newnham	-41.39714	147.13127	5389
Newcastle	-32.92715	151.77647	308308
Nerang	-27.98941	153.33633	16256
Nelson Bay	-32.72043	152.14398	7726
Narre Warren North	-37.98333	145.31667	6212
Narre Warren	-38.03333	145.3	25882
Narrabri	-30.32488	149.78266	7082
Narrabeen	-33.71277	151.29736	6436
Narellan	-34.03333	150.73333	7350
Narara	-33.4	151.35	7792
Narangba	-27.20338	152.95923	16223
Naracoorte	-36.95785	140.7383	5674
Nambucca Heads	-30.64318	153.00884	6137
Nambucca	-30.63333	152.98333	6137
Nambour	-26.62613	152.95941	10221
Muswellbrook	-32.26118	150.89009	11791
Murwillumbah	-28.32732	153.39339	6868
Murrumbeena	-37.9	145.06667	8592
Mulgrave	-37.91667	145.2	17647
Mudgee	-32.59426	149.5871	8726
Mount Martha	-38.26667	145.01667	17087
Mount Gambier	-37.8318	140.77919	23209
Mount Evelyn	-37.78333	145.38333	9100
Mount Eliza	-38.18333	145.08333	17248
Mount Druitt	-33.76667	150.81667	13582
Mount Colah	-33.68333	151.11667	6974
Moss Vale	-34.55374	150.37115	6739
Mosman	-33.83902	151.23956	26236
Morwell	-38.23476	146.39499	13399
Mortdale	-33.96667	151.08333	9640
Mornington	-38.21792	145.03876	22421
Moree	-29.46278	149.84157	8203
Mordialloc	-38.0	145.08333	7524
Morayfield	-27.10876	152.94907	18020
Moorabbin	-37.93667	145.03417	5283
Moonee Ponds	-37.76667	144.91667	13532
Moonah	-42.84617	147.30228	5084
Mooloolaba	-26.68164	153.11925	7376
Montrose	-37.81667	145.35	6465
Montmorency	-37.71667	145.11667	8759
Moe	-38.17828	146.26099	15582
Mittagong	-34.45002	150.44572	6717
Mitcham	-37.81667	145.2	14811
Miranda	-34.03857	151.10005	12903
Mill Park	-37.66667	145.06667	30517
Millicent	-37.59389	140.34947	5551
Mildura	-34.18551	142.16251	30016
Merrylands	-33.83333	150.98333	5803
Merimbula	-36.88901	149.90961	6367
Mernda	-37.60075	145.09555	6508
Mentone	-37.98333	145.06667	11667
Menai	-34.01667	151.01667	10781
Melton South	-37.70773	144.57493	8916
Melton	-37.68339	144.58543	35490
Melbourne	-37.814	144.96332	4246375
Medowie	-32.7415	151.8676	5841
McKinnon	-37.91667	145.05	5553
Matraville	-33.95	151.23333	8788
Mascot	-33.92598	151.19347	8518
Maryborough	-37.04562	143.73923	7046
Maryborough	-25.54073	152.70493	21501
Marrickville	-33.90318	151.15176	23161
Maroubra	-33.95	151.23333	26538
Maribyrnong	-37.78333	144.88333	10165
Margate	-27.24761	153.09809	6564
Mareeba	-16.99096	145.42306	8403
Manly	-33.79798	151.28826	13949
Maitland	-32.73308	151.5574	67132
Macleod	-37.73333	145.06667	9606
Mackay	-21.15345	149.16554	74219
Lysterfield	-37.93333	145.3	6551
Long Jetty	-33.35795	151.48135	5114
Liverpool	-33.9	150.93333	21317
Lithgow	-33.48247	150.13631	11298
Lismore	-28.81354	153.2773	30086
Lisarow	-33.38333	151.36667	5285
Lindisfarne	-42.84837	147.36192	5678
Lindfield	-33.78333	151.16667	7351
Lilydale	-37.75	145.35	15649
Lidcombe	-33.86436	151.0397	14161
Leumeah	-34.05	150.83333	8662
Leopold	-38.19001	144.46825	6120
Leichhardt	-33.88341	151.15625	12248
Leeton	-34.55105	146.40483	7299
Lavington	-36.03976	146.93958	12032
Launceston	-41.43876	147.13467	106153
Lara	-38.02388	144.40617	15520
Langwarrin	-38.16667	145.16667	21371
Lalor	-37.66667	145.01667	19873
Lakes Entrance	-37.86679	148.00159	5849
Lakemba	-33.91972	151.07592	14468
Lake Albert	-35.16667	147.38333	5851
Kyabram	-36.31335	145.05035	6396
Kurri Kurri	-32.81933	151.47908	5644
Kingston	-42.97638	147.30351	14371
Kingscliff	-28.25983	153.57816	6017
Kingaroy	-26.53994	151.8373	8573
Kilsyth	-37.8	145.31667	10043
Kiama	-34.66828	150.85219	12286
Keysborough	-37.99116	145.17385	22700
Kew	-37.80639	145.03086	23876
Kenthurst	-33.65527	151.00503	5250
Kensington	-33.92019	151.22241	10847
Kensington	-37.78333	144.93333	9719
Kennington	-36.78333	144.3	5830
Kempsey	-31.07898	152.83093	9522
Kelso	-33.41667	149.6	6298
Keilor	-37.71667	144.83333	5759
Katoomba	-33.71977	150.30739	18593
Kangaroo Flat	-36.8	144.25	9492
Jannali	-34.01643	151.06065	5556
Inverell	-29.77403	151.11166	8561
Innisfail	-17.52209	146.03102	8262
Ingleburn	-34.0	150.86667	13902
Ingham	-18.64552	146.16248	6127
Hughesdale	-37.9	145.08333	7055
Horsham	-36.71131	142.19981	14285
Hornsby	-33.70244	151.09931	19863
Hobart	-42.87936	147.32941	216656
Highett	-37.95	145.05	10263
Helensburgh	-34.17836	150.99522	5504
Heidelberg West	-37.75	145.03333	5327
Heidelberg	-37.75	145.06667	5714
Heathmont	-37.83333	145.25	9250
Heathcote	-34.0841	151.01305	5851
Healesville	-37.65395	145.51718	7098
Hawthorn South	-37.83333	145.05	21177
Hastings	-38.3	145.18333	6583
Hampton Park	-38.03333	145.25	23767
Hampton	-37.95	145.0	12482
Hamilton	-37.74425	142.02202	10104
Hallam	-38.01667	145.26667	10162
Haberfield	-33.88333	151.2	6587
Gympie	-26.18979	152.66499	11027
Gunnedah	-30.98065	150.25838	7148
Griffith	-34.28853	146.05093	15455
Greenvale	-37.63333	144.86667	11969
Greensborough	-37.70462	145.10302	20214
Granville	-33.83333	151.01667	22889
Grafton	-29.68104	152.93394	9955
Goulburn	-34.75155	149.72086	20940
Gorokan	-33.25764	151.5097	7066
Gordon	-29.3	152.71667	5993
Goonellabah	-28.81667	153.31667	12137
Goondiwindi	-28.54709	150.30546	5629
Goodna	-27.61046	152.89896	7939
Gold Coast	-28.00029	153.43088	591473
Glenroy	-37.7	144.93333	19644
Glenorchy	-42.83343	147.27593	10062
Glen Innes	-29.73485	151.7385	6283
Glenhaven	-33.7	151.0	5620
Glenfield	-33.96667	150.9	6758
Glenferrie	-37.83333	145.05	21177
Glenbrook	-33.76667	150.61667	5138
Gladstone	-23.84852	151.25775	30489
Geelong West	-38.13888	144.34842	12121
Geelong	-38.14711	144.36069	226034
Gatton	-27.55873	152.27618	6513
Frankston East	-38.13333	145.13333	34457
Frankston	-38.14458	145.12291	34457
Forster	-32.18136	152.51715	17591
Forest Hill	-37.83333	145.18333	10052
Footscray	-37.8	144.9	13203
Fitzroy	-37.79839	144.97833	9000
Fawkner	-37.71667	144.96667	12596
Essendon	-37.76667	144.91667	18852
Epping	-37.65	145.03333	32200
Epping	-33.77271	151.08184	18969
Engadine	-34.06564	151.01266	17937
Emerald	-37.93167	145.44093	5813
Emerald	-23.52296	148.15784	9398
Eltham North	-37.7	145.15	6841
Eltham	-37.73333	145.15	18162
Edithvale	-38.03724	145.10974	5450
Echuca	-36.14057	144.75185	19457
East Maitland	-32.75	151.58333	11310
East Ballina	-28.86667	153.58333	5474
Earlwood	-33.95	151.1	16564
Dubbo	-32.24295	148.60484	32327
Dromana	-38.33375	144.96458	5126
Doreen	-37.6	145.15	12000
Doonside	-33.76667	150.86667	13031
Donvale	-37.7891	145.17488	11795
Doncaster East	-37.78761	145.14888	27047
Doncaster	-37.78828	145.12373	18359
Dingley Village	-37.9827	145.1342	10072
Diamond Creek	-37.66667	145.15	11504
Devonport	-41.17695	146.35152	19317
Derrimut	-37.79238	144.76994	5992
Deniliquin	-35.53245	144.95364	8024
Deer Park	-37.76667	144.78333	16204
Deception Bay	-27.19354	153.02631	16090
Darlinghurst	-33.87939	151.21925	10128
Dapto	-34.5	150.78333	10478
Dandenong	-37.98333	145.2	24919
Dalby	-27.18169	151.26205	9847
Croydon North	-37.78333	145.3	7693
Croydon	-33.88333	151.11667	9645
Cronulla	-34.06251	151.14961	16754
Cranbourne	-38.1	145.28333	39419
Cranbourne	-38.11342	145.28326	18622
Craigieburn	-37.6	144.95	19728
Cowra	-33.83554	148.69663	6795
Corrimal	-34.37864	150.90356	6534
Corowa	-35.99704	146.38552	5178
Cooma	-36.23517	149.12408	6520
Coolum Beach	-26.5283	153.08809	8555
Coogee	-33.9205	151.25522	13179
Concord	-33.84722	151.10381	13008
Collingwood	-37.8	144.98333	5500
Colac	-38.339	143.58489	9089
Coffs Harbour	-30.29626	153.11351	26353
Coburg	-37.75	144.96667	24977
Clifton Springs	-38.1567	144.5551	7413
Clifton Hill	-37.79798	144.99533	5790
Cleveland	-27.52677	153.26516	13776
Clayton South	-37.93333	145.11667	11600
Clayton	-37.91667	145.11667	15543
Clarinda	-37.93333	145.11667	7461
Claremont	-42.78333	147.25	7504
Wollongong	-34.424	150.89345	292190
Chipping Norton	-33.9	150.95	8579
Chelsea Heights	-38.03333	145.13333	5186
Chelsea	-38.05	145.11667	7223
Chatswood	-33.8	151.18333	7777
Charters Towers	-20.07671	146.26353	9573
Charlestown	-32.95	151.66667	11725
Cessnock	-32.83211	151.35623	16393
Caulfield North	-37.8739	145.02485	14554
Castlemaine	-37.06709	144.21684	6604
Castle Hill	-33.73333	151.0	35389
Casino	-28.85819	153.04748	9539
Carrum Downs	-38.09968	145.17248	17213
Carnegie	-37.88333	145.06667	16299
Carlton North	-37.78333	144.96667	6220
Carlton	-37.8	144.96667	14104
Carlingford	-33.78269	151.04888	21364
Caringbah	-34.04726	151.12051	21283
Canberra	-35.28346	149.12807	367752
Camperdown	-33.88965	151.17642	6545
Campbelltown	-34.06667	150.81667	8013
Campbellfield	-37.68333	144.95	5467
Camberwell	-37.84205	145.0694	19637
Caloundra	-26.80346	153.12195	38706
Cairns	-16.92304	145.76625	153075
Caboolture	-27.08465	152.9511	21478
Byron Bay	-28.64201	153.61194	6764
Burwood East	-37.85	145.15	10141
Burpengary	-27.15746	152.95758	8280
Burnie	-41.05584	145.90375	19972
Bundamba	-27.60947	152.81133	5159
Bundaberg	-24.86621	152.3479	70826
Bulli	-34.33834	150.91347	5455
Bulleen	-37.76667	145.08333	10868
Buderim	-26.68443	153.05705	15228
Brunswick West	-37.76461	144.94383	13148
Brunswick East	-37.77255	144.97241	8476
Brunswick	-37.76667	144.96667	19867
Broken Hill	-31.9652	141.4512	18430
Broadmeadows	-37.68015	144.91877	9985
Brisbane	-27.46794	153.02809	2189878
Brighton	-27.29582	153.05721	8600
Bridgewater	-42.73719	147.22784	7790
Box Hill	-37.81887	145.12545	8616
Bowral	-34.4775	150.4204	9605
Bowen	-20.01367	148.24754	10983
Botany	-33.94599	151.19591	7455
Boronia	-37.86667	145.28333	20825
Bongaree	-27.08367	153.15942	13649
Bomaderry	-34.84967	150.61093	6600
Blaxland	-33.75	150.6	6953
Blackwater	-23.58351	148.87912	7250
Blacktown	-33.76667	150.91667	39000
Blackmans Bay	-43.00311	147.31694	6341
Biloela	-24.39589	150.51504	6309
Berwick	-38.03333	145.35	44779
Berkeley Vale	-33.35	151.43333	7980
Berkeley	-34.48333	150.85	7413
Bentleigh	-37.91806	145.03544	14271
Bendigo	-36.75818	144.28024	100617
Benalla	-36.55113	145.98425	9020
Beenleigh	-27.71137	153.2029	8244
Beaumaris	-37.98534	145.03361	12829
Bayswater	-37.85	145.26667	11240
Baulkham Hills	-33.75881	150.99292	33945
Bathurst	-33.41665	149.5806	33110
Batemans Bay	-35.70658	150.17541	10557
Banora Point	-28.21298	153.53634	27368
Bankstown	-33.91667	151.03333	30572
Balwyn	-37.81667	145.06667	12944
Balmain	-33.85481	151.1833	9783
Ballina	-28.86414	153.56541	14242
Ballarat	-37.56622	143.84957	97937
Balgowlah	-33.79494	151.2572	7495
Balaclava	-37.86667	145.0	5383
Bairnsdale	-37.82289	147.61041	11005
Bacchus Marsh	-37.67268	144.43829	13575
Ayr	-19.57393	147.40666	9078
Auburn	-33.85	151.03333	33122
Atherton	-17.26864	145.47522	6959
Aspendale	-38.02913	145.10266	6622
Ashfield	-33.88834	151.12274	22000
Ashburton	-37.86667	145.08333	7586
Ascot Vale	-37.78333	144.91667	13475
Artarmon	-33.81667	151.18333	8642
Armidale	-30.50828	151.67123	22673
Ararat	-37.28542	142.92728	8076
Altona	-37.86964	144.83036	9918
Albury	-36.07482	146.92401	45627
Albert Park	-37.83333	145.0	5955
Raymond Terrace	-32.75	151.75	13606
Gymea	-34.03637	151.08528	7419
Kirrawee	-34.03831	151.06903	8945
Gymea Bay	-34.05209	151.08795	7419
Brighton-Le-Sands	-33.96009	151.1511	7193
Blakehurst	-33.99152	151.10876	5338
Lugarno	-33.98267	151.04184	5707
New Town	-42.85758	147.30869	5870
Sandy Bay	-42.89449	147.32439	11334
Fairy Meadow	-34.39303	150.89275	6424
South Brisbane	-27.48034	153.02049	60000
Scarborough	-27.20118	153.10939	9837
Bonbeach	-38.06528	145.12278	5773
Cheltenham	-37.96944	145.04806	20292
Bellevue Hill	-33.87899	151.25101	9447
Paddington	-33.88419	151.23151	11661
Lilyfield	-33.87499	151.1653	6759
Drummoyne	-33.85237	151.15491	10385
Greenwich	-33.83954	151.183	5053
Hunters Hill	-33.83432	151.1459	9024
Cammeray	-33.82132	151.21609	6693
Neutral Bay	-33.83784	151.2175	10276
Randwick	-33.91439	151.24895	25819
Bronte	-33.90198	151.26556	6120
Bondi	-33.89429	151.26444	10373
Gladesville	-33.83333	151.13333	10835
Forestville	-33.76667	151.20833	7803
Dee Why	-33.75	151.3	17463
Umina	-33.52314	151.31325	16059
Airport West	-37.7247	144.88126	6959
Gladstone Park	-37.68742	144.88675	8329
Palmerston	-12.48602	130.9833	25000
Moranbah	-22.00163	148.04661	10000
Kaleen	-35.21814	149.10516	7586
Karratha	-20.73765	116.84629	11728
Hillarys	-31.80698	115.74045	10160
Kingsford	-33.92399	151.22749	14232
Klemzig	-34.87928	138.63562	5087
Maidstone	-37.78035	144.87353	7750
Woollahra	-33.8878	151.23681	7300
Corlette	-32.72014	152.10846	5115
Howrah	-42.88728	147.40554	7888
North Narrabeen	-33.70935	151.29607	5280
Joondalup	-31.74445	115.76835	8420
Como	-31.99119	115.86336	12425
Arncliffe	-33.93627	151.14819	8420
East Lismore	-28.82591	153.2888	5209
Mindarie	-31.68932	115.70698	6507
Clarkson	-31.68282	115.7247	7082
Kinross	-31.71868	115.73839	7232
Currambine	-31.73306	115.74766	5975
Heathridge	-31.76244	115.75895	6882
Freshwater	-33.77867	151.28569	7872
Taringa	-27.49061	152.97861	7490
Inala	-27.59715	152.97432	12568
Mount Lawley	-31.93439	115.8716	10703
Paradise	-34.87361	138.66896	6327
Athelstone	-34.87019	138.6999	9290
Wooloowin	-27.42244	153.04204	5486
Zillmere	-27.35591	153.04453	7467
Taigum	-27.34265	153.04444	5164
Bracken Ridge	-27.3171	153.03097	15355
Windsor	-27.43631	153.02882	6164
Bridegman Downs	-27.35538	152.99432	7455
Canterbury	-33.91192	151.11862	5417
Tamborine Mountain	-27.96954	153.19937	6535
North Ryde	-33.79677	151.12436	17208
Stirling	-31.88343	115.8099	9157
North Melbourne	-37.80289	144.94816	9962
Caroline Springs	-37.74124	144.73631	10880
Hoppers Crossing	-37.88264	144.7003	38108
Rouse Hill	-33.68207	150.9154	6474
Logan City	-27.63917	153.10944	282673
Carindale	-27.50578	153.10236	15135
Paramatta	-33.8178	151.00348	18448
Ferntree Gully	-37.88461	145.29539	24724
City of Parramatta	-33.81667	151.0	19745
Phillip Island	-38.48349	145.23102	7071
Springwood	-27.61183	153.12899	8952
Adelaide Hills	-34.91119	138.70735	60394
Canning Vale	-32.05799	115.91814	23289
Varsity Lakes	-28.0894	153.4122	11796
Oxenford	-27.89033	153.31309	9007
Toormina	-30.35384	153.08843	6551
Glenmore Park	-33.79068	150.6693	19200
Southbank	-37.8228	144.96434	9364
St Kilda East	-37.86594	145.00018	12576
Docklands	-37.8149	144.95052	5791
Melton West	-37.67852	144.56883	10381
Kurunjang	-37.67587	144.5969	6728
Ashwood	-37.86659	145.10553	12420
Glen Iris	-37.85995	145.05489	23270
Caulfield North	-37.87255	145.02262	14034
Elsternwick	-37.88441	145.00434	9286
Elwood	-37.88214	144.98215	13785
Burwood	-37.84978	145.11901	11886
Box Hill South	-37.83236	145.12098	7387
Blackburn	-37.81901	145.15326	11958
Canterbury	-37.8247	145.08476	7660
Hawthorn East	-37.82484	145.0464	13133
Kew East	-37.79758	145.05378	6140
Balwyn North	-37.79086	145.09386	19968
Mont Albert North	-37.80043	145.10828	5008
Box Hill North	-37.80266	145.12656	10649
Blackburn North	-37.80931	145.1518	6816
Blackburn South	-37.83975	145.15549	10129
Chadstone	-37.88766	145.09519	12357
Malvern East	-37.87397	145.04253	19593
Oakleigh South	-37.92416	145.09146	8933
Caulfield South	-37.89562	145.02597	11113
Brighton East	-37.90232	145.01734	15167
Black Rock	-37.97357	145.01636	5796
Aspendale Gardens	-38.02277	145.11798	7319
Booval	-27.61328	152.78944	20540
Brassall	-27.59753	152.74755	8320
Raceview	-27.63472	152.77519	6896
Flinders View	-27.65046	152.77451	5005
Redbank Plains	-27.64613	152.85965	9083
Collingwood Park	-27.61282	152.86008	5305
Clontarf	-27.25341	153.07835	7723
Ballarat Central	-37.56206	143.85082	5645
St Albans	-37.74496	144.80049	33511
Eleebana	-32.9896	151.63642	5859
Summer Hill	-33.89146	151.13825	6130
Altona North	-37.83487	144.84735	10886
Balcatta	-31.87501	115.82839	9495
Belmont	-31.9435	115.9255	6104
Bateau Bay	-33.38334	151.46671	11759
East Perth	-31.95872	115.87109	5753
Alexandria	-33.90219	151.20037	5852
Doveton	-37.99346	145.23891	7600
Endeavour Hills	-37.97695	145.25866	25000
Tapping	-31.71947	115.79559	8946
Taylors Lakes	-37.69863	144.78631	16095
Woodvale	-31.78928	115.79676	9202
Roxburgh Park	-37.62581	144.92555	19235
Beeliar	-32.13339	115.80637	5869
Lynbrook	-38.05588	145.25615	6772
Wyndham Vale	-37.8415	144.54101	17304
Willetton	-32.05251	115.88782	17243
Carramar	-31.69023	115.77159	6605
Alexander Heights	-31.82758	115.86501	7695
Delahey	-37.7198	144.77732	8443
Wilson	-32.02058	115.91181	5188
Butler	-31.64298	115.70431	9653
Darch	-31.81255	115.8458	6118
Innaloo	-31.89272	115.79508	7648
Booragoon	-32.03945	115.83369	5315
Seville Grove	-32.13645	115.98905	7065
Murrumba Downs	-27.26733	153.01053	9393
Knoxfield	-37.88978	145.24962	7140
Little Mountain	-26.78436	153.09218	9045
Glendenning	-33.7483	150.85411	5026
Padbury	-31.80645	115.7688	8113
East Victoria Park	-31.98894	115.90388	8102
Palmyra	-32.04502	115.78589	6247
Bell Park	-38.10793	144.33839	5286
Golden Square	-36.77265	144.25271	8170
Annerley	-27.51228	153.03248	10664
Dulwich Hill	-33.9041	151.13945	12981
Viewbank	-37.73991	145.09323	6731
Chirnside Park	-37.7386	145.31431	9092
Meadow Heights	-37.65117	144.91855	14843
Westminster	-31.86744	115.83919	5175
Bibra Lake	-32.09764	115.81921	5954
Kardinya	-32.06561	115.81483	8874
Karrinyup	-31.87233	115.77684	8524
Kewdale	-31.97886	115.95159	5439
Ocean Reef	-31.75871	115.73601	8090
Port Kennedy	-32.37342	115.7515	12816
Secret Harbour	-32.40589	115.75852	5657
Tuart Hill	-31.89808	115.83495	6706
Thornlie	-32.06003	115.955	22265
Winthrop	-32.05216	115.82972	6430
Yangebup	-32.12065	115.81623	6089
Yokine	-31.90113	115.85319	10613
Hillside	-37.69047	144.74172	16326
Wavell Heights	-27.39385	153.04698	9435
Braybrook	-37.78671	144.85484	8180
Cairnlea	-37.75931	144.78781	8839
Bundoora	-37.69825	145.05967	25709
Patterson Lakes	-38.06934	145.14327	7582
Skye	-38.10505	145.2163	7484
Beaumont Hills	-33.69993	150.9411	5817
North Adelaide	-34.90733	138.59141	6678
Victoria Park	-31.97619	115.90525	7174
Bondi Junction	-33.89275	151.24723	8660
Bald Hills	-27.32112	153.00857	5965
Beecroft	-33.74954	151.0648	8836
Lane Cove North	-33.80543	151.16638	9337
Ascot	-27.43154	153.058	5730
Chermside West	-27.38383	153.01586	6121
Everton Park	-27.40732	152.9884	8325
Stafford	-27.41044	153.01105	6041
Stafford Heights	-27.39354	153.0105	6780
Forest Lake	-27.62563	152.96883	22426
Greenslopes	-27.50815	153.04951	8565
Mansfield	-27.53929	153.09895	8473
Mount Gravatt East	-27.5405	153.08221	10891
Sunnybank Hills	-27.61025	153.05388	16830
Upper Mount Gravatt	-27.56128	153.08453	8851
Yeronga	-27.51571	153.01642	5540
Camp Hill	-27.49354	153.07629	10533
Manly West	-27.47382	153.16641	11195
Morningside	-27.46165	153.07511	9399
Wynnum West	-27.45824	153.15319	11745
Springfield	-27.65365	152.91716	6618
Rochedale South	-27.59521	153.12332	14996
Waterford West	-27.69056	153.13319	6160
Ferny Hills	-27.39594	152.93737	8721
Samford Valley	-27.3727	152.86699	10931
Flemington	-37.78825	144.93001	7528
Fairfield	-37.77977	145.01764	5946
Heidelberg Heights	-37.74313	145.05695	6388
Westmeadows	-37.67604	144.88701	5524
Keilor East	-37.73261	144.86504	13259
Coburg North	-37.72867	144.96134	6576
Hadfield	-37.70728	144.9416	5366
Oak Park	-37.71842	144.91945	5771
Pascoe Vale South	-37.73973	144.94615	9553
Bayswater North	-37.82612	145.29831	8424
Croydon Hills	-37.77651	145.26355	5185
Vermont South	-37.85747	145.1827	11416
Cranbourne East	-38.11531	145.29814	8211
Cranbourne North	-38.08292	145.27805	14570
Cranbourne West	-38.0965	145.26707	8743
Narre Warren South	-38.04369	145.2923	28594
Dandenong North	-37.96649	145.2081	21910
Noble Park North	-37.94978	145.19257	7390
Frankston North	-38.12352	145.14836	5626
Frankston South	-38.16604	145.13643	17360
Keilor Downs	-37.72337	144.80839	10307
Sunshine North	-37.76987	144.82787	10637
Sunshine West	-37.79117	144.81637	16743
Altona Meadows	-37.88413	144.78367	18746
West Footscray	-37.79746	144.87727	10222
Taylors Hill	-37.70988	144.75483	11785
Allambie Heights	-33.76655	151.24981	6742
Belfield	-33.90354	151.08467	6043
Berala	-33.87197	151.03386	8799
Berowra Heights	-33.61211	151.13754	5104
Bondi Beach	-33.89103	151.27157	10748
Cabramatta West	-33.89669	150.91056	6767
Cambridge Park	-33.74784	150.72208	6160
Caringbah South	-34.05662	151.12149	11605
Concord West	-33.84809	151.08609	5850
Ermington	-33.81483	151.05467	9470
Fairfield East	-33.86938	150.97129	5074
Fairfield Heights	-33.86445	150.93884	6649
Fairlight	-33.79575	151.27346	5489
Harris Park	-33.82285	151.00781	5072
Hornsby Heights	-33.6713	151.09428	6192
Killara	-33.76604	151.16213	9284
Kingswood Park	-33.76651	150.7144	11813
Macquarie Park	-33.775	151.11248	6143
Marsfield	-33.77784	151.10574	12347
Narellan Vale	-34.04974	150.74392	6962
Narraweena	-33.75519	151.27659	5470
North Bondi	-33.88533	151.27522	8550
South Coogee	-33.93106	151.25599	5367
South Windsor	-33.61808	150.80443	5879
Stanhope Gardens	-33.72206	150.92597	7671
Telopea	-33.79279	151.03858	5177
West Pennant	-33.7457	151.04764	15967
West Ryde	-33.80543	151.07386	11867
Wollstonecraft	-33.8328	151.18981	8012
Henley Beach	-34.92029	138.49442	5405
City Beach	-31.9344	115.76174	6354
Kallaroo	-31.79098	115.75298	5119
Mount Pleasant	-32.03974	115.84993	6423
Parmelia	-32.25784	115.82208	5953
Rivervale	-31.95546	115.91306	7070
South Lake	-32.11125	115.83873	5659
Wembley Downs	-31.91169	115.77358	5881
West Moonah	-42.84996	147.28181	5216
Burleigh Waters	-28.09975	153.42463	13868
Elermore Vale	-32.91621	151.67665	5186
Mayfield	-32.89793	151.73613	12248
Belmont North	-33.02081	151.66849	6481
Toronto	-33.01357	151.59373	5433
Albion Park Rail	-34.56123	150.79675	6937
Barrack Heights	-34.56601	150.85516	6160
Cordeaux Heights	-34.44043	150.83748	5067
Hamlyn Heights	-38.12108	144.32799	6075
Tweed Heads West	-28.18736	153.52278	5823
Rangeville	-27.58318	151.97997	8217
Darling Heights	-27.59659	151.93045	5035
East Toowoomba	-27.57086	151.97422	5676
South Tamworth	-31.11	150.92254	6741
East Albury	-36.08144	146.92991	6247
North Albury	-36.05745	146.92995	6089
Marangaroo	-31.82711	115.83843	10519
Oranjestad	12.52398	-70.02703	29998
Babijn	12.53333	-69.98333	40627
Arasji	12.61667	-70.06667	14649
Angochi	12.51667	-69.95	29442
Mariehamn	60.09726	19.93481	10682
Sharur City	39.55298	44.97993	7100
Prishibinskoye	39.11817	48.59255	13340
Zangilan	39.0884	46.6513	7483
Yaycı	38.94052	45.73244	8500
Yardımlı	38.90771	48.24052	4004
Novyy Karanlug	39.79546	47.10989	5079
Xankandi	39.8177	46.7528	53100
Əhmədbəyli	39.87867	48.39901	17242
Shushi	39.76006	46.74989	18662
Salyan	39.59621	48.98479	36555
Saatlı	39.93214	48.36892	87000
Qubadlı	39.34441	46.58183	6890
Ordubad	38.90961	46.02274	9781
Neftçala	39.3768	49.247	18661
Nakhchivan	39.20889	45.41222	64754
Mincivan	39.03058	46.7214	6353
Masally	39.03532	48.6654	9604
Lerik	38.77388	48.41497	7094
Lankaran	38.75428	48.85062	240300
Laçın	39.59881	46.55045	2300
Xocalı	39.91297	46.79028	5810
Imishli	39.87095	48.05995	34178
Fizuli	39.60094	47.14529	26765
Jebrail	39.39917	47.02835	8396
Dünyamalılar	39.77278	47.75889	5968
Culfa	38.95397	45.62961	10820
Dzhalilabad	39.20963	48.49186	36259
Cahri	39.34837	45.41557	8200
Boradigah	38.93013	48.7092	5904
Pushkino	39.45833	48.545	18182
Beylagan	39.77556	47.61861	15599
Severo-Vostotchnyi Bank	39.41117	49.24792	7075
Astara	38.45598	48.87498	15190
Şirvan	39.93778	48.929	70220
Ağdam	39.99096	46.92736	39451
Avşar	39.97389	47.42389	5600
Zyrya	40.36613	50.29198	10099
Zardob	40.21991	47.70997	10612
Zaqatala	41.6316	46.64479	18277
Zabrat	40.47746	49.94174	21396
Yevlakh	40.61832	47.15014	59036
Xudat	41.63052	48.68161	13625
Yelenendorf	40.58584	46.3189	17816
Xaçmaz	41.46426	48.80565	37175
Ujar	40.51902	47.65423	15741
Türkan	40.3646	50.22075	9699
Tovuz	40.99249	45.62838	12626
Terter	40.34179	46.93242	18185
Sumqayıt	40.58972	49.66861	265150
Kyzyl-Burun	41.07754	49.11257	3
Qaraçuxur	40.39667	49.97361	72989
Saray	40.53299	49.71681	10173
Shamkhor	40.82975	46.0178	35421
Shamakhi	40.63141	48.64137	29403
Sheki	41.19194	47.17056	63000
Samux	40.76485	46.40868	6013
Sabunçu	40.4425	49.94806	20996
Sabirabad	40.00869	48.47701	28075
Qusar	41.4275	48.4302	16022
Quba	41.36108	48.51341	22405
Qobustan	40.08238	49.41205	13398
Hacıqabul	40.03874	48.94286	23102
Qazax	41.09246	45.36561	18903
Qax	41.41826	46.92043	11992
Qutqashen	40.98247	47.84909	11867
Oğuz	41.07128	47.46528	6600
Hacı Zeynalabdin	40.62333	49.55861	19019
Nardaran	40.55611	50.00556	7700
Naftalan	40.50821	46.8203	7045
Mingelchaur	40.76395	47.05953	95453
Maştağa	40.52983	50.00616	40092
Mardakan	40.49182	50.14292	15267
Qobustan	40.5336	48.92819	3754
Lökbatan	40.3256	49.73376	30694
Qızılhacılı	40.57362	46.849	6330
Kyurdarmir	40.34532	48.15085	19088
Qobu	40.40472	49.71306	7377
Khyzy	40.90576	49.08127	1024
Khirdalan	40.44808	49.75502	37949
Khodzhi-Gasan	40.41293	49.76904	5089
Qarayeri	40.78825	46.3072	5565
Kerbakhiar	40.10984	46.04446	8400
İsmayıllı	40.78485	48.15141	13610
Yeni Suraxanı	40.43026	50.03598	16127
Geoktschai	40.65055	47.74219	35348
Hövsan	40.37444	50.08528	36293
Goranboy	40.61028	46.78972	7333
Ganja	40.68278	46.36056	313300
Kyadabek	40.57055	45.81229	8657
Corat	40.57176	49.70509	8624
Ceyranbatan	40.54194	49.66073	5684
Dzagam	40.9033	45.88564	7442
Divichibazar	41.20117	48.98712	23248
Yukhary-Dashkesan	40.52393	46.08186	9900
Çinarlı	41.46965	46.91582	6508
Buzovna	40.51903	50.11438	24795
Binagadi	40.46602	49.82783	14012
Biny Selo	40.45076	50.08686	24596
Bilajer	40.56441	50.04002	8983
Barda	40.37577	47.12619	37372
Belokany	41.72626	46.40478	9182
Balakhani	40.46344	49.91893	10863
Bilajari	40.4444	49.80566	42194
Baku	40.37767	49.89201	1116513
Pirallahı	40.47013	50.32476	13435
Amirdzhan	40.42639	49.98361	26798
Aliabad	41.4829	46.63483	9103
Aghsu	40.57028	48.40087	17209
Aghstafa	41.11889	45.45389	12542
Ağdaş	40.64699	47.4738	23528
Martakert	40.21238	46.82086	10167
Agdzhabedy	40.05015	47.45937	34989
Bakıxanov	40.41894	49.96693	66686
Aran	40.62528	46.97556	6724
Ramana	40.44222	49.98056	8855
Badamdar	40.34024	49.8045	11398
Zvornik	44.38605	19.10247	8026
Živinice	44.44929	18.64978	13641
Žepče	44.42667	18.03778	8502
Zenica	44.20169	17.90397	164423
Željezno Polje	44.39875	17.94103	5783
Zavidovići	44.44583	18.14972	14380
Vrnograč	45.16369	15.95444	6860
Vogošća	43.90225	18.34438	8180
Vitez	44.15424	17.79009	8140
Visoko	43.98889	18.17806	17890
Višegrad	43.7826	19.29256	6087
Velika Obarska	44.80461	19.16183	5142
Velika Kladuša	45.18497	15.80579	19330
Varoška Rijeka	45.08936	16.01906	6573
Vareš	44.16444	18.32833	7193
Tuzla	44.53842	18.66709	142486
Tržačka Raštela	44.97597	15.78489	6617
Trn	44.85829	17.23583	7553
Trebinje	42.71197	18.34362	33178
Travnik	44.22637	17.66583	31127
Tojšići	44.50133	18.78523	6587
Teslić	44.60639	17.85972	6405
Tešanj	44.61191	17.98552	7550
Šturlić	45.06389	15.77806	5014
Stolac	43.084	17.95995	7733
Stijena	44.9363	16.02224	10844
Srebrenik	44.70819	18.48834	6723
Srbac	45.0973	17.52331	7380
Sokolac	43.93817	18.80079	8842
Kneževo	44.49071	17.38161	6866
Šipovo	44.28237	17.08597	10738
Šekovići	44.29896	18.85532	6315
Sarajevo	43.84864	18.35644	696731
Sanski Most	44.7667	16.667	13551
Sanica	44.61354	16.64062	5666
Rodoč	43.31453	17.8029	5159
Novi Travnik	44.17133	17.65816	10006
Prozor	43.82222	17.60917	10349
Prnjavor	44.87021	17.66256	7099
Prijedor	44.97991	16.71401	36347
Potoci	43.40953	17.87855	8312
Podzvizd	45.17417	15.87361	6665
Podhum	43.72295	16.99887	5801
Pećigrad	45.05444	15.89694	6514
Pale	43.81664	18.56949	7458
Otoka	44.96	16.17917	6595
Ostrožac	44.90866	15.94045	5456
Orahovica Donja	44.65345	18.36951	5612
Omarska	44.8917	16.89814	6466
Odžak	45.02461	18.32107	11621
Nevesinje	43.25861	18.11333	7313
Mrkonjić Grad	44.41729	17.08288	14737
Mostar	43.34333	17.80806	104518
Mionica	44.86646	18.46603	8701
Milići	44.17016	19.09195	8210
Mala Kladuša	45.13443	15.85217	6033
Mahala	44.01194	18.25528	5062
Maglaj	44.54771	18.10003	7399
Ljubuški	43.19694	17.545	9987
Livno	43.82695	17.00746	11748
Široki Brijeg	43.3829	17.59416	9370
Laktaši	44.90857	17.30135	6464
Kotor Varoš	44.61831	17.37204	5068
Ključ	44.53251	16.77682	7245
Kladanj	44.22669	18.69274	6783
Kiseljak	43.94295	18.08132	8475
Kalenderovci Donji	44.94673	17.83785	5890
Kakanj	44.13311	18.12292	12406
Janja	44.66554	19.24691	5544
Jajce	44.34203	17.27059	9763
Ilijaš	43.95128	18.27128	5855
Hadžići	43.82222	18.20667	7173
Gromiljak	43.96668	18.05504	6457
Gradačac	44.87851	18.42764	15659
Gračanica	44.70307	18.3101	15758
Gostovići	44.41124	18.17029	5802
Gornji Vakuf	43.93806	17.58833	7014
Goražde	43.66795	18.97564	17650
Fojnica	43.95952	17.90288	8244
Foča	43.50646	18.77854	14615
Tomislavgrad	43.71849	17.22515	7737
Donji Vakuf	44.14361	17.4	7955
Donja Mahala	45.04327	18.66996	5565
Doboj	44.73179	18.08698	27235
Divičani	44.36682	17.32678	7251
Derventa	44.97839	17.90779	9773
Čitluk	43.22861	17.70083	5718
Cazin	44.96694	15.94306	21741
Čapljina	43.12139	17.68444	7923
Bužim	45.05361	16.03254	7229
Bugojno	44.05722	17.45083	41378
Brčko	44.86995	18.81012	38968
Bosansko Grahovo	44.17944	16.36389	5643
Novi Grad	45.04643	16.37782	8920
Brod	45.13747	17.98722	9249
Bosanska Krupa	44.8825	16.15139	15193
Gradiška	45.14484	17.25453	13346
Kozarska Dubica	45.17667	16.80944	9959
Blatnica	44.48677	17.82278	5676
Bileća	42.87645	18.42967	13257
Bijeljina	44.75874	19.21437	37692
Bihać	44.81694	15.87083	75641
Banovići	44.40596	18.52648	7211
Banja Luka	44.77842	17.19386	221106
Jelah	44.654	17.95897	5291
Čelinac	44.72453	17.32431	6670
Tešanjka	44.67228	18.01109	5666
Kovači	44.44874	18.20521	6410
Ćoralići	45.00694	15.87194	5223
Crnići	43.13156	17.86452	5789
Kačuni	44.06433	17.93894	5042
Todorovo	45.08833	15.93083	9560
Konjic	43.65126	17.96082	15950
Jablanica	43.66028	17.76167	6209
Mejdan - Obilićevo	44.76324	17.19012	5400
Welchman Hall	13.18676	-59.57663	0
Crane	13.10487	-59.44861	935
Speightstown	13.25072	-59.64396	3634
Oistins	13.07067	-59.54637	2285
Holetown	13.18672	-59.63808	1350
Greenland	13.25808	-59.57763	623
Four Cross Roads	13.17018	-59.52186	0
Checker Hall	13.28445	-59.64223	0
Bridgetown	13.10732	-59.62021	98511
Bathsheba	13.21133	-59.52596	1765
Thākurgaon	26.03097	88.46989	71096
Teknāf	20.85829	92.29773	40557
Tungi	23.89154	90.40232	337579
Sylhet	24.89904	91.87198	237000
Dohār	23.59311	90.14251	45543
Jamālpur	24.91965	89.94812	167900
Shibganj	24.68501	88.15638	35961
Sātkhira	22.70817	89.07185	128918
Sirājganj	24.45771	89.70802	127481
Netrakona	24.88352	90.72898	79016
Narsingdi	23.92298	90.71768	281080
Sandwīp	22.51409	91.45491	52152
Shāhzādpur	24.17687	89.5988	102420
Rāmganj	23.1006	90.84989	55241
Rājshāhi	24.374	88.60114	700133
Pirojpur	22.57965	89.97521	54418
Panchagarh	26.33338	88.55777	48531
Patiya	22.29543	91.979	51360
Parbatipur	25.66369	88.93093	48020
Nārāyanganj	23.61352	90.50298	223622
Nālchiti	22.63696	90.27195	38703
Nāgarpur	24.05783	89.87696	238422
Nageswari	25.96817	89.69153	49425
Mymensingh	24.75636	90.40646	225126
Muktāgācha	24.76484	90.25698	24684
Mirzāpur	24.10287	90.09841	41137
Maulavi Bāzār	24.48888	91.77075	57441
Morrelgonj	22.45566	89.85584	31647
Mehendiganj	22.82257	90.52859	39424
Mathba	22.28616	89.95883	29760
Lalmanirhat	25.91719	89.44595	65127
Lākshām	23.24018	91.12143	82290
Comilla	23.46186	91.18503	389411
Rangpur	25.74664	89.25166	343122
Kushtia	23.9028	89.11943	135724
Kālīganj	23.40964	89.13801	45631
Jhingergācha	23.11134	89.09061	41957
Joypur Hāt	25.10147	89.02734	73068
Ishurdi	24.12858	89.06573	81995
Habiganj	24.38044	91.41299	88760
Gaurnadi	22.97372	90.22376	40519
Gafargaon	24.432	90.5585	34177
Feni	23.0144	91.3966	84028
Rāipur	23.0391	90.76808	64652
Sarankhola	22.31006	89.79113	36470
Dhaka	23.7104	90.40744	10356500
Chilmāri	25.55613	89.67097	49736
Chhāgalnāiya	23.02475	91.51091	39335
Lālmohan	22.33774	90.73708	42220
Khagrachhari	23.10787	91.97007	50364
Chhātak	25.03852	91.66958	39218
Bhātpāra Abhaynagar	23.01472	89.43936	42653
Bherāmāra	24.02452	88.99234	38159
Bhairab Bāzār	24.0524	90.9764	105457
Bāndarban	22.19534	92.21946	32523
Kālia	23.043	89.63094	40492
Baniachang	24.51863	91.35787	37807
Bājitpur	24.21623	90.95002	34560
Badarganj	25.67419	89.05377	32600
Narail	23.15509	89.49515	55112
Tungipāra	22.89983	89.90326	62210
Sarishābāri	24.75127	89.83126	81325
Sakhipur	24.31988	90.16943	40869
Raojān	22.53511	91.91919	25708
Phultala	22.71673	89.51194	37985
Pālang	23.21824	90.35076	67652
Pār Naogaon	24.80418	88.94875	192464
Nabīnagar	23.88791	90.96792	31671
Lakshmīpur	22.9443	90.83005	61703
Kesabpur	22.90725	89.21954	30926
Hājīganj	23.25191	90.85508	44343
Farīdpur	23.60612	89.84064	112187
Dinājpur	25.62745	88.63779	206234
Uttar Char Fasson	22.22647	90.71275	48305
Chittagong	22.3384	91.83168	3920222
Char Bhadrāsan	23.30916	90.22698	34423
Bera	24.07821	89.63262	39604
Burhānuddin	22.49518	90.72391	45670
Sātkania	22.07639	92.04955	52005
Cox’s Bāzār	21.43973	92.00955	253788
Khulna	22.80979	89.56439	1342339
Bhola	22.68759	90.64403	99079
Barisāl	22.70497	90.37013	202242
Jessore	23.16971	89.21371	243987
Pābna	24.00644	89.2372	186781
Tāngāil	24.24984	89.91655	180144
Bogra	24.85098	89.37108	210000
Pīrgaaj	25.85587	88.35943	34606
Nawābganj	24.59025	88.27444	142361
Mādārīpur	23.17097	90.20935	84789
Sherpur	25.01881	90.01751	107419
Kishorganj	24.43944	90.78291	90690
Manikchari	22.83957	91.84128	24813
Bhāndāria	22.48898	90.06273	30219
Fatikchari	22.68768	91.78123	33200
Saidpur	25.77769	88.89169	199422
Azimpur	23.7298	90.3854	96641
Paltan	23.73625	90.41426	184492
Zwijndrecht	51.21979	4.32664	18249
Zwevegem	50.81268	3.33848	23358
Zutendaal	50.93306	5.5753	6962
Zulte	50.91954	3.44859	14670
Zoutleeuw	50.83316	5.10376	7897
Zottegem	50.86955	3.81052	24434
Zonnebeke	50.8726	2.98725	11581
Zonhoven	50.99064	5.36819	19922
Zomergem	51.11994	3.56496	8158
Zoersel	51.26825	4.71296	20642
Zingem	50.90409	3.65305	6588
Zemst	50.98318	4.46079	21096
Zelzate	51.18963	3.80777	11901
Zele	51.06566	4.0403	20236
Zedelgem	51.14236	3.1368	21968
Zaventem	50.88365	4.47298	28188
Zandhoven	51.21488	4.66164	12306
Yvoir	50.3279	4.88059	8169
Wuustwezel	51.39214	4.59546	18117
Wommelgem	51.20452	4.5225	11917
Wingene	51.05782	3.27359	12887
Willebroek	51.06041	4.36019	22808
Wijnegem	51.22787	4.51895	8932
Wielsbeke	50.9	3.36667	8828
Wichelen	51.00526	3.97683	11014
Wezembeek-Oppem	50.8395	4.49427	13245
Wevelgem	50.8	3.16667	30954
Wetteren	51.00526	3.88341	22930
Westerlo	51.09049	4.91544	22579
Wervik	50.78069	3.03854	17340
Wemmel	50.90812	4.30613	14406
Wellen	50.84096	5.33867	6804
Welkenraedt	50.6605	5.97034	9006
Wavre	50.71717	4.60138	32112
Waterloo	50.71469	4.3991	29778
Waremme	50.6976	5.25524	13737
Waregem	50.88898	3.42756	35896
Wanze	50.53907	5.20846	12918
Walhain-Saint-Paul	50.62627	4.69837	5992
Walcourt	50.25401	4.43796	17501
Waimes	50.41488	6.11207	6661
Wachtebeke	51.16852	3.87183	6911
Waasmunster	51.10572	4.08573	10460
Waarschoot	51.1525	3.605	7762
Vosselaar	51.30856	4.8896	10317
Vorselaar	51.20243	4.77259	7238
Visé	50.7376	5.69907	17054
Virton	49.56824	5.53259	11259
Vilvoorde	50.92814	4.42938	36955
Villers-le-Bouillet	50.57708	5.25945	6059
Villers-la-Ville	50.56667	4.51667	9592
Vielsalm	50.28407	5.91502	7291
Veurne	51.07316	2.66803	11983
Verviers	50.58907	5.86241	52824
Turnhout	51.32254	4.94471	39654
Tubize	50.69059	4.2009	21859
Trooz	50.57026	5.69521	7559
Tremelo	50.99231	4.70807	13721
Tournai	50.60715	3.38932	67721
Torhout	51.0656	3.10085	18933
Tongeren	50.78054	5.46484	29816
Tienen	50.80745	4.9378	31743
Tielt	50.99931	3.32707	19299
Thuin	50.33933	4.28604	14682
Theux	50.53323	5.81245	11587
Tessenderlo	51.06513	5.08856	16574
Tervuren	50.82372	4.51418	20623
Ternat	50.86654	4.16682	14569
Temse	51.12794	4.21372	26054
Stekene	51.2099	4.03651	16989
Steenokkerzeel	50.91851	4.50989	10566
Stavelot	50.395	5.93124	6646
Staden	50.97456	3.01469	10786
Stabroek	51.33189	4.37127	17294
Sprimont	50.50922	5.6595	12945
Spa	50.48375	5.86674	10756
Soumagne	50.61385	5.74679	15237
Sombreffe	50.52865	4.60087	7452
Soignies	50.57904	4.07129	24869
Sint-Truiden	50.81679	5.18647	37859
Sint-Pieters-Leeuw	50.77926	4.24355	30446
Sint-Niklaas	51.16509	4.1437	69010
Sint-Martens-Lennik	50.81158	4.16965	8818
Sint-Martens-Latem	51.01459	3.63779	8303
Sint-Maria-Lierde	50.82172	3.84814	6449
Sint-Lievens-Houtem	50.9197	3.86225	9146
Sint-Laureins	51.24202	3.52441	6657
Sint-Kruis	51.21399	3.24949	16000
Sint-Katelijne-Waver	51.06691	4.53469	19487
Sint-Gillis-Waas	51.21914	4.12374	17658
Sint-Genesius-Rode	50.74645	4.35754	17990
Sint-Amands	51.05645	4.20957	7653
Silly	50.64877	3.92363	7887
Seraing	50.58362	5.50115	60737
Seneffe	50.53135	4.26301	11025
Schoten	51.25251	4.50268	33622
Schilde	51.24107	4.58336	20373
Schelle	51.12615	4.34114	7675
Saint-Vith	50.28146	6.12724	9135
Saint-Nicolas	50.62837	5.53243	22586
Saint-Hubert	50.02668	5.37401	5538
Saint-Ghislain	50.44816	3.81886	22500
Rumst	51.08153	4.42217	14521
Ruiselede	51.04039	3.39416	5129
Rotselaar	50.95302	4.71665	15007
Ronse	50.74574	3.6005	24204
Roeulx	50.50365	4.11163	7968
Roeselare	50.94653	3.12269	56016
Rochefort	50.1631	5.2216	11978
Rixensart	50.71229	4.52529	21616
Rijkevorsel	51.34795	4.76053	10606
Riemst	50.80995	5.60131	15809
Retie	51.26652	5.08242	10069
Remicourt	50.68069	5.32785	5050
Rebecq-Rognon	50.65147	4.10683	10049
Ravels	51.37274	4.9921	13560
Ranst	51.18983	4.56533	17405
Ramillies	50.63395	4.90119	5749
Raeren	50.6672	6.11535	9925
Quiévrain	50.40737	3.68351	6560
Quévy-le-Petit	50.36879	3.93602	7689
Quaregnon	50.44067	3.8653	18491
Puurs	51.07409	4.28844	15944
Putte	51.05337	4.63263	15276
Profondeville	50.37581	4.86506	11401
Poperinge	50.85386	2.72659	19537
Pont-à-Celles	50.50518	4.36887	15909
Plombières	50.73656	5.95922	9596
Pittem	50.99279	3.26317	6589
Philippeville	50.19612	4.54374	8051
Perwez	50.62426	4.81354	7340
Péruwelz	50.50819	3.59373	16647
Pepinster	50.57375	5.8049	9530
Peer	51.1303	5.45952	15551
Pecq	50.68619	3.33789	5301
Paliseul	49.90395	5.13537	5037
Overpelt	51.21038	5.41557	13344
Overijse	50.77436	4.53461	23486
Oupeye	50.71184	5.6468	23594
Oud-Turnhout	51.31978	4.9841	12354
Oud-Heverlee	50.83522	4.66421	10533
Oudenburg	51.18489	3.00035	8752
Oudenaarde	50.85168	3.60891	27935
Ottignies	50.66535	4.56679	9557
Opwijk	50.96724	4.18442	12045
Opglabbeek	51.04258	5.58346	9452
Oostrozebeke	50.92093	3.33799	7489
Oostmalle	51.3	4.73333	7034
Oostkamp	51.15432	3.23128	21489
Oosterzele	50.95261	3.79826	13151
Ostend	51.21551	2.927	69011
Olen	51.14391	4.8598	11070
Nivelles	50.59833	4.32848	24149
Ninove	50.82776	4.02657	34795
Nijlen	51.16096	4.67008	20792
Nieuwpoort	51.13008	2.75135	10845
Nieuwerkerken	50.8638	5.19467	6466
Niel	51.11096	4.33428	8656
Nevele	51.03531	3.54574	11153
Neufchâteau	49.84074	5.43535	6416
Neerpelt	51.22807	5.4427	16122
Nazareth	50.95686	3.59425	10890
Nassogne	50.12849	5.34274	5081
Nandrin	50.50675	5.41905	5480
Namur	50.4669	4.86746	106284
Mouscron	50.74497	3.20639	52069
Mortsel	51.16697	4.45127	24525
Morlanwelz-Mariemont	50.45502	4.24519	18233
Moorslede	50.8919	3.06117	10720
Mont-Saint-Guibert	50.63427	4.61061	6557
Mons	50.45413	3.95229	91277
Momignies	50.0271	4.16519	5183
Mol	51.19188	5.11662	32659
Moerbeke	51.17409	3.93001	5855
Middelkerke	51.18532	2.82077	17789
Meulebeke	50.95136	3.28804	10948
Mettet	50.32119	4.66232	12014
Messancy	49.59201	5.81879	7144
Merksplas	51.35851	4.86513	7963
Merelbeke	50.99447	3.74621	22047
Merchtem	50.95129	4.23197	14660
Menen	50.79722	3.12245	31916
Melle	51.00232	3.80526	10687
Meise	50.93934	4.32655	18497
Meerhout	51.1321	5.07842	9346
Mechelen	51.02574	4.47762	77530
Marchin	50.46707	5.2428	5063
Marche-en-Famenne	50.22678	5.34416	16856
Manage	50.50312	4.23589	22196
Malmédy	50.42686	6.02794	11514
Maldegem	51.20737	3.44511	22092
Machelen	50.91061	4.44174	12252
Maasmechelen	50.96545	5.69452	36251
Maaseik	51.09802	5.78379	23684
Lummen	50.98772	5.19121	13689
Lubbeek	50.88278	4.83896	13574
Lovendegem	51.10168	3.61298	9272
Louvain-la-Neuve	50.66829	4.61443	29521
Londerzeel	51.00468	4.30304	17274
Lommel	51.23074	5.31349	31993
Lokeren	51.10364	3.99339	37567
Lochristi	51.09644	3.83194	19696
Lobbes	50.35258	4.26716	5467
Lint	51.12707	4.49669	7982
Limbourg	50.61222	5.9412	5612
Lille	51.24197	4.82313	15466
Lier	51.13128	4.57041	33272
Liège	50.63373	5.56749	182597
Liedekerke	50.86892	4.08743	11980
Lichtervelde	51.03333	3.15	8169
Leuven	50.87959	4.70093	92892
Lessines	50.71104	3.83579	17687
Leopoldsburg	51.11667	5.25	14149
Lendelede	50.88626	3.23747	5393
Ledegem	50.85785	3.12409	9102
Ledeberg	51.03859	3.74458	8454
Lede	50.96626	3.98594	16813
Lebbeke	51.00464	4.13457	17372
Landen	50.75267	5.082	14458
Lanaken	50.89318	5.6468	24771
La Louvière	50.48657	4.18785	76668
La Hulpe	50.73091	4.48577	7415
La Calamine	50.71809	6.01107	10232
La Bruyère	50.39478	4.61444	8194
Laarne	51.03078	3.85077	11600
Kuurne	50.85143	3.2824	12638
Kruishoutem	50.90168	3.52588	8179
Kruibeke	51.17048	4.31444	14815
Kraainem	50.86155	4.46946	12815
Kortrijk	50.82803	3.26487	73879
Kortessem	50.8589	5.38974	8042
Kortenberg	50.88982	4.54353	17774
Kortenaken	50.90862	5.05968	7374
Kortemark	51.02951	3.04112	11937
Kontich	51.13213	4.44706	20290
Koksijde	51.11642	2.63772	21027
Koekelare	51.09047	2.9783	8317
Knokke-Heist	51.35	3.26667	33781
Knesselare	51.13932	3.41282	7889
Kinrooi	51.14543	5.74207	11946
Keerbergen	51.00295	4.63434	12363
Kasterlee	51.24118	4.96651	17765
Kaprijke	51.2172	3.61519	6114
Kapelle-op-den-Bos	51.0097	4.36303	8859
Kapellen	51.31377	4.43539	26410
Kampenhout	50.9421	4.55103	10784
Kalmthout	51.38442	4.47556	17485
Jurbise	50.531	3.90942	9483
Juprelle	50.7076	5.53127	8354
Jodoigne	50.72357	4.86914	11930
Jalhay	50.55876	5.96764	7688
Jabbeke	51.18185	3.08935	13488
Izegem	50.91396	3.21378	26382
Ittre	50.64396	4.26476	6014
Ingelmunster	50.92081	3.25571	10603
Ieper	50.85114	2.88569	35089
Ichtegem	51.09572	3.01549	13582
Huy	50.51894	5.23284	19973
Hulshout	51.07451	4.79081	9198
Huldenberg	50.78939	4.5831	9137
Hove	51.15446	4.4707	7968
Houthulst	50.97824	2.9505	8951
Houthalen	51.03427	5.37429	30050
Hoogstraten	51.40029	4.76034	18524
Hooglede	50.98333	3.08333	9900
Holsbeek	50.92097	4.75747	9094
Hoeselt	50.84714	5.48767	9265
Hoeilaart	50.7673	4.46835	10272
Hoegaarden	50.7756	4.88952	6110
Hoboken	51.17611	4.34844	34443
Heusden	51.03664	5.28013	31017
Herzele	50.88681	3.89014	16523
Herve	50.64083	5.79353	16544
Herstal	50.66415	5.62346	36503
Herselt	51.05159	4.88231	13493
Herne	50.72423	4.03481	6459
Herk-de-Stad	50.94013	5.16636	11566
Herenthout	51.1401	4.75572	8378
Herentals	51.17655	4.83248	25912
Herent	50.90861	4.67056	19218
Hensies	50.43263	3.68411	6390
Hemiksem	51.14484	4.33874	9504
Helchteren	51.05591	5.38244	30050
Heist-op-den-Berg	51.07537	4.72827	37873
Heers	50.75383	5.3021	6689
Hastière-Lavaux	50.21849	4.82446	5147
Hasselt	50.93106	5.33781	69222
Harelbeke	50.85343	3.30935	25978
Hannut	50.67142	5.07898	14129
Hamois	50.3402	5.15619	6662
Hamme	51.09822	4.13705	22891
Halle	50.73385	4.23454	34479
Halen	50.94837	5.11096	8548
Habay-la-Vieille	49.72329	5.61999	7704
Haaltert	50.90634	4.00093	17129
Haacht	50.97737	4.63777	13541
Grobbendonk	51.19043	4.73562	10724
Grimbergen	50.93409	4.37213	33561
Grez-Doiceau	50.73901	4.69829	12367
Gooik	50.79443	4.11378	8957
Glabbeek-Zuurbemde	50.87348	4.94442	5070
Gistel	51.15612	2.96387	11084
Gingelom	50.74792	5.13422	7930
Gesves	50.40146	5.07457	6150
Gerpinnes	50.33789	4.52731	11977
Geraardsbergen	50.77343	3.88223	30807
Gent	51.05	3.71667	231493
Genk	50.965	5.50082	63666
Genappe	50.61173	4.45152	14266
Gembloux	50.56149	4.69889	21676
Geetbets	50.89431	5.11199	5813
Geel	51.16557	4.98917	34697
Gavere	50.92917	3.66184	11888
Galmaarden	50.75389	3.97121	7939
Frasnes-lez-Buissenal	50.66783	3.62047	10936
Frameries	50.40578	3.89603	20598
Fosses-la-Ville	50.39517	4.69623	9062
Florenville	49.69983	5.3074	5464
Florennes	50.25127	4.60636	10723
Floreffe	50.43452	4.7596	7480
Fleurus	50.48351	4.55006	22080
Fléron	50.61516	5.68062	15994
Flémalle-Haute	50.59994	5.44471	25144
Farciennes	50.43006	4.54152	11488
Evergem	51.10529	3.704	31615
Eupen	50.6279	6.03647	18029
Étalle	49.67385	5.60019	5228
Estinnes-au-Val	50.41016	4.10477	7573
Estaimpuis	50.70485	3.26785	9340
Essen	51.46791	4.46901	16754
Esneux	50.53596	5.56775	13497
Erquelinnes	50.30688	4.11129	9396
Engis	50.58156	5.39916	5737
Enghien	50.68373	4.03284	11367
Ellezelles	50.73512	3.67985	5566
Éghezée	50.59076	4.91175	14352
Eeklo	51.18703	3.55654	19116
Edegem	51.15662	4.44504	21839
Écaussinnes-d’Enghien	50.56822	4.1658	9802
Durbuy	50.35291	5.45631	10251
Duffel	51.09554	4.50903	16011
Dour	50.39583	3.77792	16861
Dison	50.61004	5.8534	13642
Dinant	50.25807	4.91166	12875
Dilbeek	50.84799	4.25972	39482
Diksmuide	51.03248	2.86384	15515
Diest	50.98923	5.05062	22516
Diepenbeek	50.90769	5.41875	17699
Diegem	50.89727	4.43354	5001
Destelbergen	51.05952	3.79899	16853
Dessel	51.23855	5.11448	8707
De Pinte	50.99339	3.64747	10020
De Panne	51.09793	2.59368	9799
Dentergem	50.96429	3.41617	8038
Dendermonde	51.02869	4.10106	43055
Denderleeuw	50.88506	4.07601	16969
Deinze	50.98175	3.53096	29815
De Haan	51.27261	3.03446	11766
Deerlijk	50.85337	3.35416	11292
Damme	51.25147	3.28144	10924
Dalhem	50.71315	5.72774	6391
Couvin	50.05284	4.49495	13518
Court-Saint-Étienne	50.63378	4.56851	9353
Courcelles	50.46379	4.3747	29473
Comblain-au-Pont	50.47488	5.57711	5308
Colfontaine	50.4141	3.85569	19964
Ciney	50.29449	5.10015	14830
Chimay	50.04856	4.31712	9720
Chièvres	50.58787	3.80711	6045
Chaumont-Gistoux	50.67753	4.7212	10943
Chaudfontaine	50.5828	5.6341	20960
Châtelet	50.40338	4.52826	35238
Chastre-Villeroux-Blanmont	50.60857	4.64198	6243
Chasse Royale	50.42842	3.95001	0
Charleroi	50.41136	4.44448	200132
Chapelle-lez-Herlaimont	50.4713	4.28227	14353
Celles	50.71229	3.45733	5471
Butgenbach	50.42689	6.20504	5516
Bullange	50.40731	6.25749	5340
Buggenhout	51.0159	4.20173	13510
Brussels	50.85045	4.34878	1019022
Brunehault	50.50524	4.43209	7592
Brugge	51.20892	3.22424	116709
Bree	51.14152	5.5969	14363
Bredene	51.23489	2.97559	14862
Brecht	51.35024	4.63829	25908
Brasschaat	51.2912	4.49182	37040
Braives	50.61745	5.13302	5672
Braine-le-Comte	50.60979	4.14658	20133
Braine-le-Château	50.6799	4.27385	9627
Braine-l'Alleud	50.68363	4.36784	37512
Boutersem	50.83511	4.8345	7702
Boussu	50.43417	3.7944	20058
Bouillon	49.79324	5.06703	5347
Borsbeek	51.19661	4.48543	10334
Bornem	51.09716	4.24364	19997
Borgloon	50.80505	5.34366	9955
Boortmeerbeek	50.97929	4.57443	11570
Boom	51.09242	4.3717	15810
Bonheiden	51.02261	4.54714	14260
Boechout	51.15959	4.49195	12145
Bocholt	51.17337	5.57994	12346
Blégny	50.67255	5.72508	12745
Blankenberge	51.31306	3.13227	18230
Binche	50.41155	4.16469	32030
Bilzen	50.87325	5.5184	29622
Bierbeek	50.82876	4.75949	8994
Beyne-Heusay	50.62251	5.66508	11608
Beveren	51.21187	4.25633	45179
Bertrix	49.85596	5.25539	8063
Bertem	50.86403	4.62918	9215
Bernissart	50.4746	3.64961	11588
Berlare	51.03333	4.0	13853
Berlaar	51.1176	4.65835	10370
Beringen	51.04954	5.22606	40930
Beloeil	50.55047	3.73484	13405
Bekkevoort	50.94074	4.969	5714
Begijnendijk	51.01942	4.78377	9178
Beersel	50.76589	4.3002	23228
Beerse	51.31927	4.85304	16208
Beernem	51.13981	3.33896	14512
Beauvechain	50.78195	4.7718	6334
Beauraing	50.11042	4.95554	8242
Beaumont	50.23699	4.23926	6645
Bastogne	50.00347	5.71844	14395
Bassenge	50.75883	5.60989	8151
Basse Lasne	50.69503	4.49218	13861
Balen	51.16837	5.17027	19978
Aywaille	50.47411	5.67684	10636
Awans	50.66774	5.46329	8612
Avelgem	50.77618	3.44502	9106
Aubange	49.56652	5.80492	14932
Ath	50.62937	3.77801	26681
Assesse	50.36934	5.02204	6279
Assenede	51.22598	3.75085	13495
Asse	50.91011	4.19836	28985
As	51.00755	5.58453	7250
Arlon	49.68333	5.81667	26179
Arendonk	51.32267	5.08289	12247
Ardooie	50.9757	3.19736	9161
Anzegem	50.837	3.47786	13920
Antwerpen	51.21989	4.40346	459805
Antoing	50.56765	3.4492	7507
Ans	50.6623	5.52029	27297
Anhée	50.31039	4.87827	7125
Anderlues	50.40704	4.27136	11597
Andenne	50.48941	5.09513	24055
Amblève	50.35357	6.17002	5221
Amay	50.54829	5.30974	13307
Alken	50.87553	5.30558	10933
Aiseau	50.41158	4.58671	10906
Aartselaar	51.13412	4.38678	14193
Aarschot	50.98715	4.83695	27656
Aalter	51.09017	3.44693	18802
Aalst	50.93604	4.0355	77534
Zorgo	12.24922	-0.61527	23892
Ziniaré	12.58186	-1.2971	12703
Yako	12.9591	-2.26075	22904
Tougan	13.0725	-3.0694	17590
Toma	12.75844	-2.89879	12401
Titao	13.76667	-2.06667	19131
Tenkodogo	11.78	-0.36972	37658
Salanso	12.17423	-4.08477	10385
Réo	12.31963	-2.47094	37535
Pô	11.16972	-1.145	17924
Pitmoaga	12.23972	-1.87667	7991
Pama	11.24972	0.7075	8902
Ouargaye	11.50202	0.05886	10103
Ouahigouya	13.58278	-2.42158	61096
Ouagadougou	12.36566	-1.53388	1086505
Nouna	12.72939	-3.86305	29048
Manga	11.66361	-1.07306	15173
Léo	11.10033	-2.10654	26884
Koupéla	12.17864	-0.35103	32052
Koudougou	12.25263	-2.36272	87347
Kongoussi	13.32583	-1.53472	26338
Kombissiri	12.06095	-1.33355	30137
Kokologo	12.18972	-1.88556	25958
Kaya	13.09167	-1.08444	39229
Houndé	11.5	-3.51667	36593
Gourcy	13.20776	-2.35893	16765
Goulouré	12.2276	-1.92922	6677
Gorom-Gorom	14.4429	-0.23468	6691
Garango	11.8	-0.55056	29076
Fada N'gourma	12.06157	0.35843	33910
Dori	14.0354	-0.0345	37806
Djibo	14.0994	-1.62554	22223
Diébougou	10.96209	-3.24967	12732
Diapaga	12.07305	1.78838	26013
Dédougou	12.46338	-3.46075	45341
Dano	11.1464	-3.05784	11153
Boussé	12.6576	-1.89288	15868
Boulsa	12.66664	-0.57469	17489
Boromo	11.74542	-2.93006	13157
Bogandé	12.9704	-0.14953	9854
Bobo-Dioulasso	11.17715	-4.2979	360106
Batié	9.88333	-2.91667	6483
Banfora	10.63333	-4.76667	60288
Gaoua	10.29917	-3.25083	25104
Orodara	10.94917	-4.93417	18632
Beloslav	43.18333	27.7	7989
Zlatograd	41.3795	25.09605	7331
Zlatitsa	42.71667	24.13333	5786
Yambol	42.48333	26.5	80116
Yakoruda	42.02528	23.68417	6008
Varshets	43.19528	23.28611	7512
Valchedram	43.69639	23.44472	5207
Vratsa	43.21	23.5625	64941
Vidin	43.99	22.8725	54409
Vetovo	43.7	26.26667	5175
Velingrad	42.02754	23.99155	24036
Veliko Tŭrnovo	43.08124	25.62904	66217
Varna	43.21667	27.91667	312770
Tvarditsa	42.7	25.9	6519
Tutrakan	44.05	26.61667	10022
Targovishte	43.2512	26.57215	37774
Tryavna	42.86667	25.5	13818
Troyan	42.89427	24.71589	21162
Topolovgrad	42.08333	26.33333	6464
Dobrich	43.56667	27.83333	94831
Teteven	42.91667	24.26667	10790
Tervel	43.75	27.4	6808
Svoge	42.96667	23.35	8964
Svishtov	43.61959	25.35044	32256
Svilengrad	41.76667	26.2	19279
Saedinenie	42.26667	24.55	6427
Strazhitsa	43.23333	25.96667	5728
Straldzha	42.6	26.68333	5817
Stara Zagora	42.43278	25.64194	143431
Dupnitsa	42.26667	23.11667	34764
Stamboliyski	42.13333	24.53333	12070
Sofia	42.69751	23.32415	1152556
Smolyan	41.58528	24.69194	32069
Slivnitsa	42.85	23.03333	7545
Sliven	42.68583	26.32917	96368
Simitli	41.88333	23.11667	6729
Simeonovgrad	42.03333	25.83333	7388
Silistra	44.11667	27.26667	39715
Shumen	43.27064	26.92286	87283
Sevlievo	43.02583	25.11361	24582
Septemvri	42.21667	24.1	8745
Sandanski	41.56667	23.28333	26459
Samokov	42.337	23.5528	26765
Ruse	43.85639	25.97083	156238
Razlog	41.8863	23.46714	12486
Razgrad	43.53333	26.51667	38285
Rakovski	42.3	24.96667	15782
Rakitovo	41.98333	24.08333	8376
Radomir	42.54444	22.95778	14755
Radnevo	42.3	25.93333	14667
Provadia	43.18333	27.43333	13755
Veliki Preslav	43.16667	26.81667	9425
Popovo	43.35	26.23333	16571
Pomorie	42.55882	27.64393	13714
Polski Trambesh	43.38361	25.64972	5663
Plovdiv	42.15	24.75	340494
Pleven	43.41667	24.61667	118675
Pirdop	42.7	24.18333	8136
Petrich	41.4	23.21667	30308
Peshtera	42.03333	24.3	18676
Perushtitsa	42.05	24.55	5350
Pernik	42.6	23.03333	82467
Pazardzhik	42.2	24.33333	75977
Pavlikeni	43.24278	25.32194	12214
Panagyurishte	42.5	24.18333	19389
Oryahovo	43.73333	23.96667	5706
Omurtag	43.1	26.41667	9070
Novi Pazar	43.35	27.2	13276
Nova Zagora	42.48333	26.01667	24340
Nesebar	42.65921	27.73602	6302
Nedelino	41.45602	25.08008	5017
Montana	43.4125	23.225	47445
Tsarevo	42.16955	27.84541	6085
Mezdra	43.15	23.7	11975
Madan	41.49869	24.93973	5661
Lyubimets	41.83333	26.08333	8065
Lyaskovets	43.11111	25.72833	8488
Lukovit	43.2	24.16667	9792
Lovech	43.13333	24.71667	42211
Lom	43.81389	23.23611	26594
Levski	43.36667	25.13333	11467
Kyustendil	42.28389	22.69111	48286
Kardzhali	41.65	25.36667	51000
Kubrat	43.8	26.5	8980
Krumovgrad	41.47127	25.65485	5271
Krichim	42.05	24.46667	8580
Kozloduy	43.78333	23.73333	14717
Kotel	42.88333	26.45	6421
Kostinbrod	42.81667	23.21667	12175
Knezha	43.5	24.08333	6889
Hisarya	42.5	24.7	7903
Haskovo	41.93415	25.55557	79699
Harmanli	41.93333	25.9	18931
Kazanlak	42.61667	25.4	55196
Kavarna	43.43333	28.33333	11205
Karnobat	42.65	26.98333	19709
Karlovo	42.63333	24.8	19958
Isperih	43.71667	26.83333	9735
Ihtiman	42.43333	23.81667	14154
Gŭlŭbovo	42.13333	25.85	8400
Sredets	42.34747	27.17898	9573
Gotse Delchev	41.56667	23.73333	20471
Gorna Oryahovitsa	43.12778	25.70167	38553
Godech	43.015	23.04417	5154
Dolni Chiflik	42.98333	27.71667	7169
General-Toshevo	43.7	28.03333	7758
Gabrovo	42.87472	25.33417	66175
Etropole	42.83333	24.0	11031
Elhovo	42.16667	26.56667	11107
Elin Pelin	42.66667	23.6	7373
Elena	42.93333	25.88333	6042
Dulovo	43.81667	27.15	6788
Dalgopol	43.05	27.35	5272
Dryanovo	42.97897	25.4785	8346
Dolni Dabnik	43.4	24.43333	5259
Dimitrovgrad	42.05	25.6	43288
Devnya	43.22222	27.56944	8171
Devin	41.74327	24.40003	7393
Chirpan	42.2	25.33333	17243
Cherven Bryag	43.26667	24.1	21688
Chepelare	41.73333	24.68333	5478
Byala Slatina	43.46667	23.93333	13307
Burgas	42.50606	27.46781	195966
Botevgrad	42.9	23.78333	20909
Bobovdol	42.36972	23.01722	6184
Blagoevgrad	42.01667	23.1	71306
Berkovitsa	43.23611	23.12583	15027
Belogradchik	43.62722	22.68361	5688
Belene	43.65	25.11667	9781
Bansko	41.8383	23.48851	9232
Balchik	43.41667	28.16667	13000
Aytos	42.7	27.25	20986
Asenovgrad	42.01667	24.86667	52170
Aksakovo	43.25	27.81667	7132
Zlatni Pyasatsi	43.285	28.0418	9760
Sitrah	26.15472	50.62056	37657
Madīnat ‘Īsá	26.17361	50.54778	38090
Jidd Ḩafş	26.21861	50.54778	31735
Madīnat Ḩamad	26.11528	50.50694	52718
Dār Kulayb	26.06861	50.50389	65466
Al Muharraq	26.25722	50.61194	97458
Manama	26.22787	50.58565	147074
Al Ḩadd	26.24556	50.65417	12797
Ar Rifā‘	26.13	50.555	79550
Makamba	-4.1348	29.804	19642
Bururi	-3.94877	29.62438	19740
Rumonge	-3.9736	29.4386	6074
Mwaro	-3.51128	29.70334	4924
Isale	-3.3489	29.4839	0
Bujumbura	-3.3822	29.3644	331700
Muramvya	-3.2682	29.6079	18041
Gitega	-3.4264	29.9308	23167
Ruyigi	-3.47639	30.24861	38458
Cankuzo	-3.2186	30.5528	6585
Karuzi	-3.10139	30.16278	10705
Bubanza	-3.0804	29.391	12728
Cibitoke	-2.8869	29.1248	14220
Ngozi	-2.9075	29.8306	21506
Kayanza	-2.9221	29.6293	19443
Muyinga	-2.8451	30.3414	71076
Kirundo	-2.5845	30.0959	6083
Rutana	-3.9279	29.992	20893
Tchaourou	8.88649	2.59753	20971
Tanguiéta	10.62118	1.26651	19833
Savé	8.03424	2.4866	75970
Savalou	7.92807	1.97558	30187
Sakété	6.73618	2.65866	30111
Porto-Novo	6.49646	2.60359	234168
Pobé	6.98008	2.6649	32983
Parakou	9.33716	2.63031	163753
Ouidah	6.36307	2.08506	83503
Nikki	9.94009	3.21075	54009
Natitingou	10.30416	1.37962	80892
Malanville	11.86819	3.38327	37117
Lokossa	6.63869	1.71674	86971
Kétou	7.36332	2.59978	22341
Kandi	11.13417	2.93861	109701
Hévié	6.41667	2.25	13450
Guilmaro	10.56583	1.72444	6516
Grand-Popo	6.28036	1.82251	9847
Dogbo	6.81667	1.78333	41312
Djougou	9.70853	1.66598	237040
Dassa-Zoumé	7.75	2.18333	21672
Cové	7.22097	2.34017	38566
Cotonou	6.36536	2.41833	780000
Comé	6.40764	1.88198	29208
Bohicon	7.17826	2.0667	125092
Bétérou	9.19916	2.25855	13108
Bembèrèkè	10.22827	2.66335	24006
Bassila	9.00814	1.6654	23616
Banikoara	11.29845	2.43856	22487
Aplahoué	6.93333	1.68333	19862
Allada	6.66547	2.15138	20094
Abomey-Calavi	6.44852	2.35566	385755
Abomey	7.18286	1.99119	82154
Gustavia	17.89618	-62.84978	5988
Hamilton	32.2949	-64.78303	902
Tutong	4.8	114.65	19151
Seria	4.60637	114.32476	30097
Kuala Belait	4.58361	114.2312	31178
Bangar	4.71667	115.06667	3970
Bandar Seri Begawan	4.94029	114.94806	64409
San Matías	-16.36667	-58.4	6352
Roboré	-18.33473	-59.76142	9882
Puerto Quijarro	-17.78333	-57.76667	10392
Yacuiba	-22.01643	-63.67753	82803
Warnes	-17.5163	-63.16778	22036
Villazón	-22.08659	-65.59422	30253
Villa Yapacaní	-17.4	-63.83333	18187
Villamontes	-21.26235	-63.46903	18761
Vallegrande	-18.48923	-64.10609	8422
Uyuni	-20.45967	-66.82503	10293
Tupiza	-21.44345	-65.71875	22233
Trinidad	-14.83333	-64.9	84259
Tarija	-21.53549	-64.72956	159269
Tarata	-17.60898	-66.02135	8043
Sucre	-19.03332	-65.26274	224838
Santiago del Torno	-17.98674	-63.38118	15543
Santa Rosa del Sara	-17.10916	-63.59514	5251
Santa Cruz de la Sierra	-17.78629	-63.18117	1364389
San Pedro	-16.23717	-68.85063	5002
San Julian	-17.78333	-62.86667	7706
San Ignacio de Velasco	-16.36667	-60.95	23569
San Borja	-14.81667	-66.85	19640
Rurrenabaque	-14.44125	-67.52781	11749
Riberalta	-11.00654	-66.06312	74014
Reyes	-14.2952	-67.33624	7376
Punata	-17.54234	-65.83472	15194
Potosí	-19.58361	-65.75306	141251
Portachuelo	-17.35168	-63.39282	11485
Patacamaya	-17.2358	-67.92169	12260
Pailón	-17.65	-62.75	9304
Oruro	-17.98333	-67.15	208684
Montero	-17.33866	-63.2505	88616
Monteagudo	-19.79989	-63.95461	8289
Mizque	-17.94101	-65.34016	30481
Mineros	-17.11876	-63.231	14385
Llallagua	-18.42426	-66.58388	28069
La Paz	-16.5	-68.15	812799
La Bélgica	-17.55	-63.21667	5501
Huanuni	-18.289	-66.83583	15492
Guayaramerín	-10.83676	-65.36136	36008
Cotoca	-17.81667	-63.05	18347
Concepción	-16.43333	-60.9	6900
Colchani	-20.3	-66.93333	11988
Cochabamba	-17.3895	-66.1568	900414
Cobija	-11.02671	-68.76918	26585
Cliza	-17.58777	-65.93253	8654
Chimoré	-16.99417	-65.1533	5147
Challapata	-18.90208	-66.77048	8016
Capinota	-17.71113	-66.26082	5157
Camiri	-20.03849	-63.51833	27961
Ascensión	-15.7	-63.08333	14429
Aiquile	-18.20408	-65.18068	8224
Achacachi	-16.05	-68.68333	8447
The Bottom	17.6259	-63.24919	488
Oranjestad	17.48268	-62.98324	1097
Kralendijk	12.15	-68.26667	3081
Vitorino Freire	-4.04238	-45.23777	13267
Vitória do Mearim	-3.46222	-44.87056	15775
Vitória de Santo Antão	-8.11806	-35.29139	107383
Viseu	-1.19667	-46.14	18958
Conde	-7.25972	-34.9075	15859
Vigia	-0.85833	-48.14167	29229
Viçosa do Ceará	-3.56222	-41.09222	16636
Viçosa	-9.37139	-36.24083	19573
Vicência	-7.65694	-35.32667	10378
Viana	-3.22028	-45.00361	26689
Várzea Alegre	-5.35	-40.38333	21841
Varjota	-4.19444	-40.47667	16462
Vargem Grande	-3.54306	-43.91583	21419
Valença do Piauí	-6.4075	-41.74556	15881
Urucurituba	-3.12845	-58.15856	10180
Uruçuí	-7.22944	-44.55611	12243
Urucará	-2.53639	-57.76	8603
Uruburetama	-3.625	-39.50833	12075
Urbano Santos	-3.20778	-43.40361	12268
Upanema	-5.64194	-37.25778	6704
União dos Palmares	-9.16278	-36.03194	41178
União	-4.58583	-42.86417	15677
Umirim	-3.67722	-39.35028	12220
Umarizal	-5.99056	-37.81444	8780
Uiraúna	-6.51833	-38.41222	7823
Ubajara	-3.85444	-40.92111	13802
Uauá	-9.84139	-39.48167	11425
Tutóia	-2.76194	-42.27444	12212
Turiaçu	-1.66333	-45.37167	10471
Tupanatinga	-8.75333	-37.33972	5768
Tuntum	-5.25806	-44.64889	16402
Tucuruí	-3.76585	-49.67923	76337
Tucumã	-0.18333	-50.05	15030
Trindade	-7.76194	-40.26778	19313
Trairi	-3.27778	-39.26889	23126
Traipu	-9.97056	-37.00333	8427
Touros	-5.19889	-35.46083	7662
Toritama	-8.00667	-36.05667	23940
Tomé Açu	-2.41889	-48.15222	34053
Timon	-5.09417	-42.83667	124427
Timbiras	-4.25528	-43.94056	17875
Timbaúba	-7.50528	-35.31833	45121
Tianguá	-3.73222	-40.99167	45696
Terra Santa	-2.10417	-56.48694	13512
Teresina	-5.08917	-42.80194	744512
Teixeira	-7.22278	-37.25417	9954
São João dos Inhamuns	-6.0	-40.28333	29188
Taquaritinga do Norte	-7.90306	-36.04417	13379
Taquarana	-9.645	-36.49722	5288
Taperoá	-7.2075	-36.82667	8879
Tangará	-6.19944	-35.80167	8067
Tamboril	-4.83222	-40.32056	14292
Tamandaré	-8.75632	-35.09995	17954
Tabira	-7.59083	-37.53944	16926
Surubim	-7.83306	-35.75472	34580
Sumé	-7.67167	-36.88	10440
Sousa	-6.75917	-38.22806	47927
Soure	-0.71667	-48.52333	18212
Soledade	-7.05722	-36.36278	8090
Solânea	-6.755	-35.54	17030
Sobral	-3.68611	-40.34972	157996
Sirinhaém	-8.59083	-35.11611	40852
Simplício Mendes	-7.85389	-41.91028	7076
Sertânia	-8.07361	-37.26444	18190
Serra Talhada	-7.99194	-38.29833	51203
Serra Branca	-6.53333	-38.26667	8765
Senador Pompeu	-5.58806	-39.37167	16515
Senador José Porfírio	-2.59083	-51.95417	5708
Satuba	-9.56333	-35.82444	15887
São Tomé	-5.9725	-36.07528	6137
São Sebastião	-9.93361	-36.55417	9551
São Raimundo Nonato	-9.01528	-42.69944	19569
São Raimundo das Mangabeiras	-7.02194	-45.48111	10216
São Pedro do Piauí	-5.92944	-42.71861	7408
São Paulo do Potengi	-5.895	-35.76278	9333
São Miguel do Tapuio	-5.50361	-41.32333	7964
São Miguel dos Campos	-9.78111	-36.09361	40890
São Miguel do Guamá	-1.62667	-47.48333	28265
São Miguel	-5.46667	-35.36667	12838
São Mateus do Maranhão	-4.04167	-44.475	28233
São Luís do Quitunde	-9.31833	-35.56111	20563
São Luís	-2.52972	-44.30278	917237
São Lourenço da Mata	-8.00222	-35.01833	88416
São José do Egito	-7.47889	-37.27444	18218
São José do Campestre	-6.31556	-35.71389	10254
São José do Belmonte	-7.86139	-38.75972	14211
São José de Ribamar	-2.56194	-44.05417	27777
São José de Piranhas	-7.12056	-38.50194	7628
São José de Mipibu	-6.07472	-35.23778	15298
São José da Tapera	-9.55833	-37.38111	12391
São José da Laje	-9.00972	-36.05833	12810
São José da Coroa Grande	-8.89778	-35.14778	11512
São Joaquim do Monte	-8.4325	-35.80444	13520
São João dos Patos	-6.495	-43.70222	19538
São João do Piauí	-8.35806	-42.24667	12688
São João de Pirabas	-0.77472	-47.17722	10065
São João	-8.87556	-36.36667	6926
São Gonçalo do Amarante	-5.79333	-35.32944	10381
São Gonçalo do Amarante	-3.60722	-38.96833	23583
São Geraldo do Araguaia	-6.40056	-48.555	12925
São Félix do Xingu	-6.64472	-51.995	16477
São Domingos do Maranhão	-5.57583	-44.38528	18275
São Caetano de Odivelas	-0.75	-48.02	8862
São Bernardo	-3.36139	-42.41778	11171
São Bento	-6.28333	-37.75	24749
São Bento	-2.69583	-44.82139	17245
São Benedito do Rio Preto	-3.33361	-43.52833	12079
Santo Antônio do Tauá	-1.15194	-48.12944	8921
Santo Antônio	-6.31056	-35.47889	12529
Santa Rita	-7.11389	-34.97806	119893
Santa Rita	-3.86358	-43.85999	13224
Santarém	-2.44306	-54.70833	189047
Santa Quitéria do Maranhão	-3.51556	-42.54667	17174
Santa Quitéria	-4.33194	-40.15667	24391
Santana do Mundaú	-9.16806	-36.22222	6439
Santana do Matos	-5.9575	-36.65556	8050
Santana do Ipanema	-9.37833	-37.24528	26146
Santana do Acaraú	-3.46056	-40.21222	14707
Santa Maria do Pará	-1.35028	-47.57556	12915
Santa Maria da Boa Vista	-8.80778	-39.82556	14695
Santa Luzia	-7.64265	-47.21738	22909
Santa Luzia	-6.87222	-36.91861	13243
Santa Inês	-3.66667	-45.38	67424
Santa Helena	-2.23111	-45.3	16045
Santa Cruz do Capibaribe	-7.9575	-36.20472	76450
Santa Cruz	-6.22944	-36.02278	27775
Salinópolis	-0.61361	-47.35611	40998
Salgueiro	-8.07417	-39.11917	42152
Russas	-4.94028	-37.97583	39465
Rio Tinto	-6.80306	-35.08056	11804
Rio Largo	-9.47833	-35.85333	63387
Rio Formoso	-8.66877	-35.16277	15518
Ribeirão	-8.51444	-35.37778	29818
Riachão	-7.36194	-46.61722	12427
Reriutaba	-4.14167	-40.58222	12076
Remígio	-6.94646	-35.78039	9659
